,school,long,lat,locality,level_2,level_1,country,zipcode,SUdistance
0,American School Of Paris,2.1977532,48.8407439,Saint-Cloud,Hauts-de-Seine,Île-de-France,France,92210,3625.758786
1,American Intrnl School Abuja,7.458431,9.022419,Abuja,Hauts-de-Seine,Federal Capital Territory,Nigeria,92210,5475.693305
2,Way American School Marista,-83.4907534,42.2079833,Belleville,Wayne County,Michigan,United States,48111,379.2377347
3,Taft School,-73.123841,41.603409,Watertown,Litchfield County,Connecticut,United States,6795,183.2113116
4,Dubai American Academy,55.1810667,25.1043456,Saint-Cloud,Hauts-de-Seine,Dubai,United Arab Emirates,92210,6816.750984
5,Clear Creek High School,-95.0707285,29.5248989,League City,Galveston County,Texas,United States,77573,1403.019687
6,Acs Cobham Intl School,-0.4017895,51.3481216,Saint-Cloud,Surrey,England,United Kingdom,KT11 1BL,3450.373494
7,Colegio Jorge Washington,-75.551415,10.4097323,Cartagena,Cartagena,Bolívar,Colombia,130001,2246.985076
8,Hong Kong International School,114.2233475,22.2376299,Saint-Cloud,Hauts-de-Seine,Hong Kong Island,Hong Kong,92210,7891.315061
9,Northland Christian School,-94.5874779,39.2848032,Kansas City,Hauts-de-Seine,Missouri,United States,64155,994.3165136
10,Port Moody Secondary School,-122.8677633,49.2738482,Port Moody,Greater Vancouver,British Columbia,Canada,V3H 2M5,2246.804285
11,Shanghai Qibao Dwight HS,121.351368,31.157657,Saint-Cloud,Saint-Cloud,Shanghai,China,201101,7206.592177
12,Escuela Internacional Sampedra,-88.0483362,15.5256078,San Pedro Sula,Hauts-de-Seine,Île-de-France,Honduras,92210,2022.045561
13,Saint Georges School,-71.2732344,41.4909129,Middletown,Newport County,Rhode Island,United States,2842,271.0488004
14,Burnaby North Secondary School,-122.9734081,49.2780112,Burnaby,Greater Vancouver,British Columbia,Canada,V5B 4A1,2251.508915
15,Beijing National Day School,116.255987,39.902615,Saint-Cloud,Saint-Cloud,Beijing Shi,China,100049,6670.068253
16,Shekou International School,113.911886,22.481475,Shenzhen Shi,Shenzhen Shi,Guangdong Sheng,China,92210,7877.522711
17,Lorne Park Secondary School,-79.6246459,43.5314892,Mississauga,Peel Regional Municipality,Ontario,Canada,L5H 3B1,179.2991508
18,Zurich International School,8.634484,47.236607,Wädenswil,Horgen,Zürich,Switzerland,8820,3941.361678
19,Tema International School,-0.0185899,5.7061815,Tema,Hauts-de-Seine,Île-de-France,Ghana,92210,5251.388733
20,Loyola Jesuit College,-122.4509259,37.7795648,San Francisco,San Francisco County,California,United States,94118,2438.365776
21,American School Of Doha,51.4811608,25.263248,<U+0627><U+0644><U+062F><U+0648><U+062D><U+0629>,Hauts-de-Seine,Île-de-France,Qatar,92210,6675.94217
22,Qatar Academy,51.4138511,25.3078343,Ar-Rayyan,Hauts-de-Seine,Île-de-France,Qatar,92210,6670.993473
23,Victoria Park Secondary School,-79.3215631,43.7556958,Toronto,Toronto Division,Ontario,Canada,M3A 2V1,167.9312726
24,Doha British School,51.4664241,25.2419751,Doha,Hauts-de-Seine,Al Rayyan Municipality,Qatar,92210,6676.594967
25,Scarborough Senior High School,-95.4713289,29.8295562,Houston,Harris County,Texas,United States,77092,1404.542019
26,The Hotchkiss School,-73.4398162,41.9449701,Lakeville,Litchfield County,Connecticut,United States,6039,156.9269113
27,Pomfret School,-71.9619834,41.8841789,Pomfret,Windham County,Connecticut,United States,6259,227.5703057
28,American School Guadalajara,-103.37525,20.6962149,Guadalajara,Hauts-de-Seine,Jalisco,Mexico,44630,2202.466245
29,Cardinal Newman High School,-122.7410273,38.492971,Santa Rosa,Sonoma County,California,United States,95403,2433.63094
30,Sir Winston Churchill Hs,-114.140082,51.1001239,Calgary,Division No. 6,Alberta,Canada,T2L 2J6,1854.803819
31,Centennial High School,-97.4899777,35.5738856,Oklahoma City,Oklahoma County,Oklahoma,United States,73131,1250.373092
32,George School,-74.9352384,40.2122551,Newtown,Bucks County,Pennsylvania,United States,18940,204.6264663
33,Uruguayan American School,-56.0775876,-34.8739368,Montevideo,Hauts-de-Seine,Montevideo,Uruguay,11500,5508.613481
34,Vicenza American School Dod,11.5824138,45.5483312,Vicenza,Province of Vicenza,Veneto,Italy,36100,4122.103768
35,Duchesne Academy Sacred Heart,-95.4859737,29.7784868,Houston,Harris County,Texas,United States,77024,1407.67496
36,Hills Road Sixth Form College,0.135277,52.18809,Saint-Cloud,Cambridgeshire,England,United Kingdom,CB2 8PE,3450.177492
37,American School Foundation,-99.2060538,19.3995023,Álvaro Obregón,Hauts-de-Seine,Ciudad de México,Mexico,1120,2110.774233
38,Senator Oconnor College School,-79.317419,43.7506144,Toronto,Toronto Division,Ontario,Canada,M3A 3R2,167.6351204
39,Cushing Academy,-71.9127165,42.6330842,Ashburnham,Worcester County,Massachusetts,United States,1430,216.2372808
40,Jumeirah College,55.23549,25.17661,Dubai,Hauts-de-Seine,Dubai,United Arab Emirates,92210,6814.502709
41,Terry Fox Secondary School,-122.7481275,49.2629139,Port Coquitlam,Greater Vancouver,British Columbia,Canada,V3B 7Z5,2241.527409
42,Riverside School,-96.191598,38.394347,Emporia,Lyon County,Kansas,United States,66801,1097.65033
43,Kaiserslautern American Hs Dod,7.707172,49.4324309,Kaiserslautern,Hauts-de-Seine,Rheinland-Pfalz,Germany,67661,3830.847732
44,Nepean High School,-75.7592243,45.3837888,Ottawa,Ottawa Division,Ontario,Canada,K2A 3V8,163.051698
45,Country Day School Escazu,-84.1439863,9.9178754,Escazú,Hauts-de-Seine,San José,Costa Rica,92210,2331.268066
46,Newton College,-97.342236,38.0715752,North Newton,Harvey County,Kansas,United States,67117,1163.927134
47,Upper Canada College,-79.4042204,43.6933846,Toronto,Toronto Division,Ontario,Canada,M4V 2X8,170.8016383
48,Vincentian Academy,-80.0207233,40.5567706,Pittsburgh,Allegheny County,Pennsylvania,United States,15237,263.7791272
49,Academia Del Perpetuo Socorro,-66.0848293,18.4545353,San Juan,Hauts-de-Seine,San Juan,Puerto Rico,907,1792.818024
50,St Augustine Prep School,-74.8746527,39.5001213,Buena Vista Township,Atlantic County,New Jersey,United States,8350,252.7656865
51,Ross Sheppard Composite Hs,-113.5580758,53.5597454,Edmonton,Division No. 11,Alberta,Canada,T5M 2P2,1845.473448
52,Loyola Blakefield High School,-76.6264736,39.4040985,Towson,Baltimore County,Maryland,United States,21204,252.0550329
53,Vermont Academy,-72.508514,43.141708,Town of Rockingham,Windham County,Vermont,United States,5154,183.5515239
54,York Memorial Collegiate Inst,-79.4759025,43.6902084,Toronto,Toronto Division,Ontario,Canada,M6M 1T9,174.2321879
55,My School Is Not Listed-Intrnt,-3.435973,55.378051,,,,United Kingdom,,3239.52067
56,Ramstein American Hs Dodd,7.5739464,49.4457645,Ramstein-Miesenbach,Hauts-de-Seine,Rheinland-Pfalz,Germany,66877,3825.108921
57,Calcutta Intl School Society,88.4000651,22.5203917,Kolkata,Kolkata,West Bengal,India,700107,7814.102269
58,Ahmedabad International School,72.5131305,23.0344815,Ahmedabad,Ahmedabad,Gujarat,India,380054,7467.913907
59,La Martiniere For Boys,88.3564631,22.5420745,Kolkata,Kolkata,West Bengal,India,700017,7812.054607
60,Cathedral & John Connon School,-95.9901898,36.147712,Tulsa,Tulsa County,Oklahoma,United States,74119,1157.77527
61,La Martiniere School for Girls,88.3564631,22.5420745,Kolkata,Kolkata,West Bengal,India,700017,7812.054607
62,Dhirubhai Ambani Intl Sch,72.8704831,19.0666803,Mumbai,Mumbai,Maharashtra,India,400098,7727.165732
63,Indus International School,78.179376,17.450099,Shankarpally,Shankarpally,Telangana,India,501203,7961.707368
64,Jamnabai Narsee School,72.8322222,19.1055725,Mumbai,Mumbai,Maharashtra,India,400049,7723.707052
65,Jamnabai Narsee International School,72.8322222,19.1055725,Mumbai,Mumbai,Maharashtra,India,400049,7723.707052
66,Pan American Christian Academy,-46.713309,-23.729732,Saint-Cloud,São Paulo,São Paulo,Brazil,04829-310,4960.909599
67,American Creativity Academy,48.0225052,29.327773,Hawally,Hauts-de-Seine,Hawalli Governorate,Kuwait,92210,6324.490866
68,Colegio Highlands San Salvador,-89.2416687,13.6854132,Santa Tecla,San Salvador,San Salvador,El Salvador,92210,2167.26716
69,United World College Phuket,98.3524578,8.0508662,Tambon Thep Krasatti,Amphoe Thalang,Chang Wat Phuket,Thailand,83110,8897.694159
70,Black Forest Academy,7.6588,47.71031,Kandern,Freiburg,Baden-Württemberg,Germany,79400,3885.493904
71,American School Of Madrid,-3.7822575,40.4435065,Pozuelo de Alarcón,Madrid,Comunidad de Madrid,Spain,28223,3623.756761
72,Colegio Marymount,-74.0663028,4.7559814,Saint-Cloud,Hauts-de-Seine,Bogotá,Colombia,111156,2638.287976
73,Humphreys High School,-97.4892741,41.689972,Humphrey,Platte County,Nebraska,United States,68642,1094.088885
74,International School Curitiba,-49.326979,-25.3690982,Saint-Cloud,Curitiba,Paraná,Brazil,82410-530,5006.280387
75,American Intl School/Dhaka,90.4194495,23.8007767,Dhaka,Dhaka District,Dhaka Division,Bangladesh,1212,7753.053598
76,Bancroft School,-71.8148554,42.3046978,Worcester,Worcester County,Massachusetts,United States,1605,225.7159024
77,American School Of Warsaw,21.115809,52.11314,Bielawa,piaseczynski,mazowieckie,Poland,05-520,4239.509741
78,Academia Cotopaxi,-78.461196,-0.15905,Quito,Hauts-de-Seine,Île-de-France,Ecuador,170503,2976.455105
79,Yokota High School Dod,139.3418051,35.7331931,Fussa,Hauts-de-Seine,Tokyo,Japan,197-8503,6568.643582
80,Niskayuna High School,-73.889463,42.8182014,Saint-Cloud,Schenectady County,New York,United States,12309,114.8566164
81,Liceo Campoverde,-78.447422,-0.166511,Quito,Metropolitan District of Quito,Pichincha,Ecuador,170170,2976.925852
82,Quest Private School,-88.041794,42.119999,Palatine,Cook County,Illinois,United States,60067,610.2115041
83,Hoosac School,-73.3476743,42.8542768,Hoosick,Rensselaer County,New York,United States,12089,141.8577834
84,Fisher Park H S-Cont Education,-106.346771,56.130366,,,,Canada,,1611.069296
85,Festus High School,-90.414796,38.2237109,Festus,Jefferson County,Missouri,United States,63028,819.5372862
86,Masconomet Regional Hs,-70.9757922,42.6271399,Boxford,Essex County,Massachusetts,United States,1921,263.5457143
87,International Sch Azerbaijan,49.7945237,40.3819245,Baku,Baku,Île-de-France,Azerbaijan,92210,5774.730825
88,American School Of Las Palmas,-15.4453789,28.0407587,Las Palmas de Gran Canaria,Las Palmas,Canarias,Spain,35017,3492.737267
89,Lord Byng Secondary School,-123.1920965,49.2585212,Vancouver,Greater Vancouver,British Columbia,Canada,V6R 3C9,2261.489314
90,Shanghai Jiaotong University,121.432841,31.201001,Saint-Cloud,Saint-Cloud,Shanghai Shi,China,200000,7202.590238
91,Colegio Nueva Granada,-74.0506161,4.6478177,Bogotá,Hauts-de-Seine,Bogotá,Colombia,110231,2645.759697
92,Colegio Panamericano,-73.1031118,7.0698147,Saint-Cloud,Floridablanca,Santander,Colombia,92210,2483.121299
93,High Sch @Renmin Univ Of China,116.312477,39.973592,Saint-Cloud,Saint-Cloud,Beijing Shi,China,100080,6664.758964
94,Instituto Alberto Einstein,-79.5092439,8.9858772,Panamá,Panamá,Panamá,Panama,92210,2353.469535
95,Beijing Huijia Private School,116.252039,40.192043,Saint-Cloud,Saint-Cloud,Beijing Shi,China,102202,6650.381677
96,Rdfz Xishan School,116.28476,40.031349,Saint-Cloud,Saint-Cloud,Beijing Shi,China,100094,6661.056716
97,Walworth Barbour Ais Israel,34.8765535,32.2645436,Even Yehuda,HaSharon,Center District,Israel,92210,5664.00406
98,Tannenbaum Chat South Campus,-79.4574217,43.7619729,Toronto,Toronto Division,Ontario,Canada,M3H 5J8,174.5912193
99,International College Spain,-3.6425917,40.5178137,Alcobendas,Madrid,Comunidad de Madrid,Spain,28109,3627.799907
100,Deerfield Academy,-72.6076286,42.546129,Deerfield,Franklin County,Massachusetts,United States,1342,182.4404887
101,Al Afak Al Gadeda International School,31.4486003,30.0539769,Saint-Cloud,Hauts-de-Seine,Cairo Governorate,Egypt,92210,5631.556931
102,Gems World Academy,-87.6187141,41.8866934,Chicago,Cook County,Illinois,United States,60601,591.8212057
103,Colegio Metropolitano,-90.4509115,14.5665959,Saint-Cloud,Santa Catarina Pinula,Guatemala Department,Guatemala,92210,2137.46123
104,Brantford Collegiate Institute,-80.2734233,43.1425352,Brantford,Brantford,Ontario,Canada,N3T 3H3,209.5305239
105,Mckinnon Park Secondary School,-79.9529099,43.0628891,Caledonia,Haldimand County,Ontario,Canada,N3W 2H2,193.3273156
106,Turner Fenton Secondary School,-79.7191326,43.674955,Brampton,Peel Regional Municipality,Ontario,Canada,L6W 0A2,185.8606351
107,Concordia Inter School Shangha,121.591373,31.238719,Saint-Cloud,Saint-Cloud,Shanghai Shi,China,201203,7197.919783
108,American School Of Recife,-34.9065919,-8.1359457,Saint-Cloud,Recife,Pernambuco,Brazil,51030-065,4371.76197
109,Academia Interamericana Panama,-79.4751824,9.0133075,Panama City,Panama,Panama,Panama,92210,2351.411484
110,Trinity School At Greenlawn,-86.2215668,41.6757012,South Bend,St. Joseph County,Indiana,United States,46617,524.5554306
111,Colegio Los Nogales,-74.0602092,4.781693,Bogotá,Hauts-de-Seine,Bogotá,Colombia,111166,2636.540893
112,Saint Dominic High School,-90.7226554,38.8068103,O'Fallon,St. Charles County,Missouri,United States,63366,816.1302092
113,Saint Johnsbury Academy,-72.019289,44.416193,Saint Johnsbury,Caledonia County,Vermont,United States,5819,226.8912097
114,International School Of Krakow,19.917993,49.970856,Lusina,krakowski,malopolskie,Poland,32-020,4279.873444
115,Holy Trinity School,-94.7437858,38.961954,Lenexa,Johnson County,Kansas,United States,66215,1010.319488
116,Palmer Trinity School,-80.3214288,25.6014041,Miami,Miami-Dade County,Florida,United States,33157,1225.060989
117,Saint Joseph Academy,-81.8176813,41.4588291,Cleveland,Cuyahoga County,Ohio,United States,44111,311.0871995
118,British School - Quito,-78.4279941,-0.2246341,Sangolquí,Distrito Metropolitano de Quito,Pichincha,Ecuador,170184,2980.857705
119,Tomas Moro,-106.3867833,32.0387604,Chaparral,Doña Ana County,New Mexico,United States,88081,1813.245277
120,Webber Academy,-114.2248963,51.0442273,Calgary,Division No. 6,Alberta,Canada,T3H 0G7,1858.335543
121,International School Amsterdam,4.8603975,52.2892389,Amstelveen,Amstelveen,Noord-Holland,Netherlands,1185 TB,3632.018039
122,Guangdong Experimental HS,113.277396,23.126054,Guangzhou,Guangzhou,Guangdong,China,92210,7839.014526
123,English School The,-97.0687445,36.1273281,Stillwater,Payne County,Oklahoma,United States,74078,1210.748891
124,Gulliver Preparatory School,-80.299706,25.689507,Pinecrest,Miami-Dade County,Florida,United States,33156,1218.852441
125,Carachipampa Christian School,-66.2554611,-17.3923112,Quillacollo,Quillacollo,Cochabamba Department,Bolivia,92210,4204.618184
126,Bishop Strachan School,-79.4089507,43.6900898,Toronto,Toronto Division,Ontario,Canada,M4V 1X2,170.9756028
127,Westminster School,-97.5226207,35.5161531,Oklahoma City,Oklahoma County,Oklahoma,United States,73118,1253.992984
128,Saint Marys International Sch,139.632709,35.6145794,Setagaya,Hauts-de-Seine,Tokyo,Japan,158-8668,6569.052891
129,Markham College,-77.0163045,-12.1252416,Miraflores,Provincia de Lima,Municipalidad Metropolitana de Lima,Peru,15048,3795.64982
130,British School The,-87.648798,41.90766,Chicago,Cook County,Illinois,United States,60642,593.0530052
131,Loomis Chaffee School,-72.63961,41.844137,Windsor,Hartford County,Connecticut,United States,6095,196.7052759
132,Modern School Vasant Vihar,77.1575456,28.5615567,New Delhi,New Delhi,Delhi,India,110057,7221.12456
133,Pathways School Noida,77.3677222,28.5422601,Noida,Noida,Uttar Pradesh,India,201303,7226.687985
134,Doon School,78.027772,30.33309,Dehradun,Dehradun,Uttarakhand,India,248001,7123.49637
135,Saint Andrews School,-80.1455623,26.3835793,Boca Raton,Palm Beach County,Florida,United States,33434,1170.130767
136,American Embassy School,77.1823553,28.5993099,New Delhi,New Delhi,Delhi,India,110021,7219.188535
137,Royal St Georges College,-79.410477,43.6693777,Toronto,Toronto Division,Ontario,Canada,M5R 3B5,170.7061473
138,Colegio Interamericano,-90.480545,14.593559,Guatemala,Hauts-de-Seine,Île-de-France,Guatemala,92210,2136.427156
139,Collingwood School,-123.1202414,49.3603631,West Vancouver,Greater Vancouver,British Columbia,Canada,V7S 1B2,2257.387017
140,Mercersburg Academy,-77.8978126,39.8263022,Mercersburg,Franklin County,Pennsylvania,United States,17236,239.7901105
141,Podar International School,-122.0669512,37.3999212,Mountain View,Santa Clara County,California,United States,94043,2429.602909
142,Pathways School-Gurgaon,77.135736,28.420764,Gurugram,Gurugram,Haryana,India,122003,7229.797055
143,Balboa Academy,-79.5829268,9.0008275,Panamá,Panamá,Panamá,Panama,92210,2352.837358
144,Neerja Modi School,75.7653341,26.868082,Jaipur,Jaipur,Rajasthan,India,302020,7300.79034
145,Jakarta International School,106.7881055,-6.28543,Saint-Cloud,Kota Jakarta Selatan,Daerah Khusus Ibukota Jakarta,Indonesia,12430,9893.51604
146,Paul Vi High School,-77.3146407,38.8540299,Fairfax,Hauts-de-Seine,Virginia,United States,22030,295.2181845
147,Frankfurt International School,8.5427285,50.2136583,Oberursel (Taunus),Darmstadt,Hessen,Germany,61440,3838.613522
148,Berlin Brandenburg Intl School,13.216009,52.400796,Kleinmachnow,Hauts-de-Seine,Brandenburg,Germany,14532,3944.112672
149,Pathways World School,77.135736,28.420764,Gurugram,Gurugram,Haryana,India,122003,7229.797055
150,Lakefield College School,-78.2654264,44.4394176,Lakefield,Peterborough County,Ontario,Canada,K0L 2H0,144.0337031
151,Woodstock Academy,-71.975534,41.951017,Woodstock,Windham County,Connecticut,United States,6281,225.2395071
152,Woodstock School,78.1005505,30.45415,Mussoorie,Mussoorie,Uttarakhand,India,248179,7117.02898
153,United World Colg Se Asia-East,103.9316263,1.3579189,Saint-Cloud,Hauts-de-Seine,Île-de-France,Singapore,528704,9374.547125
154,Jayshree Periwal International School,75.666223,26.826328,Mahapura,Mahapura,Rajasthan,India,302026,7301.287782
155,Bill Crothers Secondary School,-79.312471,43.8563587,Markham,York Regional Municipality,Ontario,Canada,L3R 2E4,169.5547094
156,American School Of Barcelona,2.084434,41.383901,Esplugues de Llobregat,Barcelona,Catalunya,Spain,8950,3860.336576
157,Foundation Public School,67.0919918,24.930527,Karachi,Karachi City,Sindh,Pakistan,92210,7204.068252
158,Faith Christian School,-96.9014236,35.4623548,Shawnee,Pottawatomie County,Oklahoma,United States,74802,1225.956109
159,St Thomas More Collegiate,-122.9384946,49.2151708,Burnaby,Greater Vancouver,British Columbia,Canada,V3N 2K1,2250.4832
160,Phillips Exeter Academy,-70.9517405,42.9811003,Exeter,Rockingham County,New Hampshire,United States,3833,262.5175024
161,Gimnasio Britanico,-74.0557023,4.8690385,Saint-Cloud,Chía,Cundinamarca,Colombia,92210,2630.55808
162,St Georges College,-71.2732344,41.4909129,Middletown,Newport County,Rhode Island,United States,2842,271.0488004
163,Ottawa Hills High School,-85.6273537,42.9257517,Grand Rapids,Kent County,Michigan,United States,49506,480.9504993
164,Al Mawakeb School,55.201725,25.104581,Saint-Cloud,Dubai,Dubai,United Arab Emirates,92210,6817.455724
165,International Schl Of Beijing,116.525235,40.079879,Saint-Cloud,Saint-Cloud,Beijing Shi,China,92210,6655.718826
166,Second Hs-Beijing Normal Univ,116.371841,39.960133,Saint-Cloud,Saint-Cloud,Île-de-France,China,92210,6665.175798
167,Home School Clearing House,-77.4160782,38.9597565,Herndon,Fairfax County,Virginia,United States,20171,289.2612245
168,Green Mountain Union Hs,-72.582036,43.253131,Chester,Windsor County,Vermont,United States,5143,180.1438931
169,Proctor Academy,-71.8233418,43.4370471,Andover,Merrimack County,New Hampshire,United States,3216,219.2803191
170,Boca Raton Academy,-80.1671745,26.3668712,Boca Raton,Palm Beach County,Florida,United States,33434,1171.499371
171,Waterford School,-111.8494481,40.5798004,Sandy,Salt Lake County,Utah,United States,84093,1837.994586
172,Maru-A-Pula School,25.932301,-24.647974,Gaborone,Hauts-de-Seine,Île-de-France,Botswana,92210,7945.448884
173,Taipei American School,121.5291117,25.1169158,Saint-Cloud,Hauts-de-Seine,Taipei City,Taiwan,111,7608.85722
174,Saint Andrews International School Bangkok,100.5969111,13.7240992,Bangkok,Hauts-de-Seine,Chang Wat Bueng Kan,Thailand,10110,8519.26213
175,New International Sch Thailand,100.5597004,13.7471204,Saint-Cloud,Hauts-de-Seine,Krung Thep Maha Nakhon,Thailand,10110,8517.556642
176,Bangkok Patana School,100.6222702,13.6619392,Saint-Cloud,Hauts-de-Seine,Krung Thep Maha Nakhon,Thailand,10260,8523.614492
177,Bangkok International Prep & Secondary School,100.5773938,13.7256399,Saint-Cloud,Hauts-de-Seine,Krung Thep Maha Nakhon,Thailand,10110,8519.091033
178,Escuela Americana,-89.2392918,13.695539,San Salvador,San Salvador,San Salvador Department,El Salvador,92210,2166.556474
179,Shrewsbury International Schl,100.5092118,13.7100331,Saint-Cloud,Hauts-de-Seine,Krung Thep Maha Nakhon,Thailand,10120,8519.931356
180,Sands Secondary School,-122.9224164,49.1516219,Delta,Greater Vancouver,British Columbia,Canada,V4C 2B3,2250.314536
181,American Intl Sch Mozambique,32.6152367,-25.9436624,Maputo,Hauts-de-Seine,Maputo,Mozambique,92210,8332.932014
182,Kis International School,100.5895052,13.7721271,Saint-Cloud,Hauts-de-Seine,Krung Thep Maha Nakhon,Thailand,10310,8515.939722
183,Aga Khan Mzizima Secondary Sch,39.2779653,-6.8129228,Dar es Salaam,Ilala,Île-de-France,Tanzania,92210,7817.596521
184,Technologico De Monterrey,-100.2894607,25.651933,Monterrey,Hauts-de-Seine,Nuevo León,Mexico,92210,1816.283213
185,International Sch Tanganyika,-97.55854,37.672167,Goddard,Sedgwick County,Kansas,United States,67052,1186.065848
186,Ghana International School,-0.1764458,5.5803522,Accra,Accra Metropolis,Greater Accra Region,Ghana,92210,5249.316378
187,Lincoln Community School,-74.1101431,40.6667013,Bayonne,Hudson County,New Jersey,United States,7002,194.1037036
188,Labone Senior High School,-0.1712557,5.5644744,Accra,Accra Metropolis,Greater Accra Region,Ghana,92210,5250.321076
189,Miscellaneous High School,-95.8282742,36.2798502,Owasso,Tulsa County,Oklahoma,United States,74055,1145.374763
190,American Intl Sch Johannesburg,28.0372714,-25.9463233,Midrand,City of Johannesburg Metropolitan Municipality,Gauteng,South Africa,1682,8104.369963
191,West Nairobi School,36.7142558,-1.3079411,Nairobi City,Hauts-de-Seine,Nairobi County,Kenya,92210,7426.076545
192,Brookhouse International Schl,36.764969,-1.345091,Nairobi City,Hauts-de-Seine,Nairobi County,Kenya,92210,7430.360594
193,Aga Khan Academy Mombasa,39.6695551,-4.0773895,Mombasa,Hauts-de-Seine,Île-de-France,Kenya,92210,7705.000858
194,International School Of Kenya,36.763516,-1.232348,Nairobi City,Hauts-de-Seine,Nairobi County,Kenya,800,7424.80586
195,Auburn Drive High School,-63.4825857,44.6878846,Dartmouth,Halifax Regional Municipality,Nova Scotia,Canada,B2W 6E9,641.4681062
196,Hugh Mcroberts Secondary Sch,-123.1266156,49.1403753,Richmond,Greater Vancouver,British Columbia,Canada,V7A 1G6,2259.594933
197,Aga Khan Academy Nairobi,36.8224725,-1.2656087,Nairobi,Hauts-de-Seine,Île-de-France,Kenya,92210,7429.302959
198,Malvern College,-2.326113,52.1040859,Saint-Cloud,Worcestershire,England,United Kingdom,WR14 3DF,3354.477112
199,Episcopal School Of Dallas,-96.841716,32.887373,Dallas,Dallas County,Texas,United States,75229,1324.333454
200,Jomo Kenyatta U Coll Ag&Tech,37.010508,-1.0891064,Juja,Hauts-de-Seine,Kiambu County,Kenya,92210,7429.88517
201,Notre Dame High School,-90.2716111,38.5238439,Lemay,St. Louis County,Missouri,United States,63125,802.9880419
202,Eric Hamber Secondary School,-123.1249865,49.2398336,Vancouver,Greater Vancouver,British Columbia,Canada,V5Z 3S1,2258.641599
203,Kigali International Community,30.0912899,-1.9268466,Kigali,Gasabo,Kigali City,Rwanda,92210,7128.64761
204,Najd National Schools,46.6672262,24.7251517,Riyadh,Hauts-de-Seine,Île-de-France,Saudi Arabia,12216,6524.531203
205,Ethio Parents School,38.8059348,9.002819,Addis Ababa,Hauts-de-Seine,Addis Ababa,Ethiopia,92210,7013.506654
206,Capistrano Valley Chrstn Sch,-117.670322,33.4976061,San Juan Capistrano,Orange County,California,United States,92675,2326.491607
207,Andinet International School,38.8238597,9.022868,Addis Ababa,Hauts-de-Seine,Addis Ababa,Ethiopia,92210,7013.320029
208,Wellspring Academy,-82.7344412,35.2691588,Brevard,Hauts-de-Seine,North Carolina,United States,28712,642.0587251
209,Saint Johns Ravenscourt,-97.1223423,49.8433841,Winnipeg,Division No. 11,Manitoba,Canada,R3T 3K5,1101.973154
210,Greek Community School,38.7690783,9.0074451,Addis Ababa,Hauts-de-Seine,Addis Ababa,Ethiopia,92210,7011.569063
211,Saint Joseph High School,-74.3721725,40.553333,Metuchen,Middlesex County,New Jersey,United States,8840,194.0929462
212,Hill Academy The,-79.5187788,43.8362147,Vaughan,York Regional Municipality,Ontario,Canada,L4K 5R1,178.9630924
213,Singapore American School,103.7755,1.4257977,Singapore,Hauts-de-Seine,Île-de-France,Singapore,738547,9369.880872
214,Kubasaki High School Dod,127.7811875,26.305293,Kitanakagusuku,Nakagami District,Okinawa Prefecture,Japan,92210,7423.715528
215,Winchester School The,-90.4608441,39.6239723,Winchester,Scott County,Illinois,United States,62694,780.426799
216,Kadena High School Dod,127.7811851,26.3355065,Okinawa,Hauts-de-Seine,Okinawa Prefecture,Japan,904-0000,7421.737908
217,Colegio Karl C Parrish,-74.8425728,11.0188706,Barranquilla,Barranquilla,Atlantico,Colombia,81007,2206.213158
218,Home Schooled-HS,-95.712891,37.09024,Saint-Cloud,Hauts-de-Seine,Île-de-France,United States,92210,1112.765959
219,Christchurch School,-76.54932,37.612003,Christchurch,Middlesex County,Virginia,United States,23031,374.9989556
220,United Faith Christian Academy,-80.774195,35.090058,Charlotte,Mecklenburg County,North Carolina,United States,28277,602.1108988
221,Lycee Intl des Pontonniers,7.7560586,48.5844356,Strasbourg,Bas-Rhin,Grand Est,France,67000,3860.466551
222,Fundacao Anglo Brasileira,-46.6816743,-23.5708583,Saint-Cloud,São Paulo,São Paulo,Brazil,01440-020,4951.555511
223,American Community Schl-Amman,35.8493949,31.9596596,Amman,Hauts-de-Seine,Amman Governorate,Jordan,92210,5718.440575
224,Escola Amer Do Rio De Janeiro,-43.2454556,-22.9839761,Saint-Cloud,Rio de Janeiro,Rio de Janeiro,Brazil,22451-260,5001.694935
225,Amman Academy,35.8363464,31.9991107,Amman,Hauts-de-Seine,Île-de-France,Jordan,92210,5715.932618
226,Oak Bay Secondary School,-123.3176507,48.4322045,Victoria,Capital,British Columbia,Canada,V8R 5G4,2275.07465
227,E L Crossley Secondary School,-79.3175849,43.041499,Pelham,Niagara Regional Municipality,Ontario,Canada,L0S 1E0,161.1908354
228,Modern American School,35.859388,31.952148,Amman,Hauts-de-Seine,Amman Governorate,Jordan,92210,5719.219593
229,Williston Northampton School,-72.6716831,42.2664694,Easthampton,Hampshire County,Massachusetts,United States,1027,184.2522203
230,Amman Baccalaureate School,35.8062864,32.0007267,Sweileh,Mahes & Fuhais District,Balqa Governorate,Jordan,11910,5714.644725
231,Mulgrave School,-123.1953821,49.3496335,West Vancouver,Greater Vancouver,British Columbia,Canada,V7S 3H9,2260.844844
232,American Nicaraguan School,-86.2768788,12.1120624,Managua,Hauts-de-Seine,Departamento de Managua,Nicaragua,92210,2214.810772
233,Holy Spirit High School,-74.5093346,39.416991,Absecon,Atlantic County,New Jersey,United States,8201,263.7899406
234,Henry Wise Wood High School,-114.0845217,50.9863647,Calgary,Division No. 6,Alberta,Canada,T2V 0S6,1852.061115
235,Colegio Bolivar,-76.546542,3.340365,Cali,Cali,Valle del Cauca,Colombia,760031,2732.624059
236,International Sch Dusseldorf,6.736035,51.291459,Düsseldorf,Düsseldorf,Nordrhein-Westfalen,Germany,40489,3734.189472
237,Nazareth School,-117.106812,32.7852741,San Diego,San Diego County,California,United States,92108,2322.014518
238,School of Tomorrow,-97.0172425,33.0001862,Lewisville,Denton County,Texas,United States,75067,1327.654138
239,European School,-84.3809405,33.8967188,Atlanta,Fulton County,Georgia,United States,30342,772.125122
240,American Academy In Tbilisi,44.7450078,41.7384324,Tbilisi,Hauts-de-Seine,Île-de-France,Georgia,186,5538.498262
241,Lycee International Honore De,2.3151781,48.8959854,Paris,Paris,Île-de-France,France,75017,3628.966487
242,Sigonella Middle/High Sch Dodd,12.56738,41.87194,,,,Italy,,4302.243303
243,Sacred Heart Catholic Hs,-79.4396918,44.0570582,Newmarket,York Regional Municipality,Ontario,Canada,L3Y 1R9,180.2805175
244,Ukrainian Humanities Lyceum,30.5272023,50.4420575,Kyiv,Kyiv City,Île-de-France,Ukraine,2000,4633.735663
245,"Tasis, American Sch In England",-0.5299565,51.4088144,Saint-Cloud,Surrey,England,United Kingdom,TW20 8TE,3443.662916
246,Tianjin Foreign Language Schl,117.196193,39.170538,Saint-Cloud,Saint-Cloud,Tianjin Shi,China,92210,6711.676547
247,Kings College Madrid,-3.6301594,40.5262431,Alcobendas,Madrid,Comunidad de Madrid,Spain,28109,3628.100003
248,Colegio Internacional Sek,-84.0216993,9.9230253,Grandilla,Hauts-de-Seine,San José Province,Costa Rica,92210,2329.398921
249,Colegio Nuestra Senora del Recuerdo,-3.6778855,40.4684688,Madrid,Madrid,Comunidad de Madrid,Spain,28036,3627.78037
250,White Oaks Secondary School,-79.7019642,43.4634799,Oakville,Halton Regional Municipality,Ontario,Canada,L6H 1Z5,182.4117762
251,British School Of Rio,-43.1928286,-22.9531126,Saint-Cloud,Rio de Janeiro,Rio de Janeiro,Brazil,22281-033,5001.167732
252,International Sch Of Myanmar,96.1173248,16.8467694,Yangon,Hauts-de-Seine,Yangon Region,Myanmar (Burma),92210,8280.881267
253,Our Lady Of Mercy School,-91.1243602,30.4475522,Baton Rouge,East Baton Rouge Parish,Louisiana,United States,70806,1198.693806
254,Interlochen Arts Academy,-85.769263,44.631233,Interlochen,Grand Traverse County,Michigan,United States,49643,493.6199945
255,Aquinas American School,-3.8457925,40.4267266,Pozuelo de Alarcón,Madrid,Comunidad de Madrid,Spain,28223,3621.357669
256,Sek El-Castillo,-3.940025,40.470233,Villanueva de la Cañada,Madrid,Community of Madrid,Spain,28692,3615.561006
257,Vidyashilp Academy,77.5965756,13.0890086,Bengaluru,Bengaluru,Karnataka,India,560064,8227.625367
258,Aiglon College,7.046384,46.302166,Chesières,Aigle,Vaud,Switzerland,1885,3907.607591
259,Saint Georges British Int Schl,12.3836606,42.0013696,Roma,Città Metropolitana di Roma,Île-de-France,Italy,123,4289.393132
260,Saint Louis School,-157.8083558,21.2903977,Honolulu,Honolulu County,Hawaii,United States,96816,4825.614798
261,International School Basel,7.6016797,47.5107891,Reinach,Arlesheim,Basel-Landschaft,Switzerland,4153,3889.829386
262,American Overseas School Rome,12.4398045,41.9665002,Roma,Città Metropolitana di Roma,Lazio,Italy,189,4293.136471
263,Brooks School,-71.085589,42.707446,North Andover,Essex County,Massachusetts,United States,1845,257.2884796
264,Irmak Okullari,29.0594777,40.9656993,Saint-Cloud,Kadiköy,Istanbul,Turkey,34728,5013.470127
265,Glacier Peak High School,-122.1340012,47.8687686,Snohomish,Snohomish County,Washington,United States,98296,2226.887222
266,Rato Bangala School,85.3199222,27.6781568,Patan,Bagmati,Central Development Region,Nepal,44700,7424.555491
267,Saint Stephens School,-97.8188095,30.3279079,Austin,Travis County,Texas,United States,78746,1482.012691
268,American Farm School,-73.9894083,40.7436986,New York,New York County,New York,United States,10010,193.1077575
269,Anatolia College,-71.0594844,42.3587551,Boston,Suffolk County,Massachusetts,United States,2108,262.5378952
270,Shanghai American School Puxi,121.281056,31.204454,Saint-Cloud,Saint-Cloud,Shanghai Shi,China,92210,7204.391136
271,Mandoulides Schools,-88.7032959,41.9844885,Sycamore,DeKalb County,Illinois,United States,60178,645.3640419
272,Moraitis School,23.7755545,38.0119854,Psichiko,Hauts-de-Seine,Île-de-France,Greece,154 52,4936.1585
273,Pinewood Intl Sch Thessaloniki,23.012419,40.52874,Thermi,Hauts-de-Seine,Île-de-France,Greece,570 01,4793.205313
274,Pierce College Hs Division,-118.5791524,34.1844597,Los Angeles,Los Angeles County,California,United States,91371,2350.025508
275,Athens College Psychico Coll,23.7808113,38.018795,Psichiko,Hauts-de-Seine,Île-de-France,Greece,154 52,4936.071446
276,Milton Academy,-71.071823,42.255173,Milton,Norfolk County,Massachusetts,United States,2186,263.5010984
277,Paradise Valley High School,-111.998408,33.642569,Phoenix,Maricopa County,Arizona,United States,85032,2035.32364
278,Antigua International School,-90.754065,14.540727,Ciudad Vieja,Hauts-de-Seine,Sacatepéquez,Guatemala,3012,2146.340968
279,Saint Andrews-Sewanee School,-85.8913761,35.2171635,Sewanee,Franklin County,Tennessee,United States,37375,751.2400109
280,International School Of Geneva,6.1719694,46.1992119,Genève,Genève,Genève,Switzerland,1208,3874.511873
281,Zengeza High School,-104.7733109,38.3139817,Pueblo West,Pueblo County,Colorado,United States,81007,1531.516627
282,Glenlyon-Norfolk School,-123.3073174,48.4288001,Victoria,Capital,British Columbia,Canada,V8R 6H9,2274.640217
283,Point Grey Secondary School,-123.1529549,49.2374547,Vancouver,Greater Vancouver,British Columbia,Canada,V6M 3V2,2259.917777
284,Highfield High School,-70.6244052,41.5600638,Falmouth,Barnstable County,Massachusetts,United States,2540,300.0932087
285,Thacher School The,-119.1807818,34.4647272,Ojai,Ventura County,California,United States,93023,2371.511937
286,Lycee Francais De Barcelone,2.118245,41.392688,Barcelona,Barcelona,Catalunya,Spain,8034,3861.554547
287,Benjamin Franklin Intl School,2.118598,41.406055,Barcelona,Barcelona,Catalunya,Spain,8017,3861.108845
288,Es International School,2.0643916,41.3157168,El Prat de Llobregat,Barcelona,Île-de-France,Spain,8820,3861.789589
289,Marlborough High School,-71.5455115,42.3630786,Marlborough,Middlesex County,Massachusetts,United States,1752,238.1744823
290,Zimbabwe Republic Police HS,29.154857,-19.015438,Saint-Cloud,Hauts-de-Seine,Île-de-France,Zimbabwe,92210,7865.303822
291,Cardinal Carter Acad For Arts,-79.4096791,43.7640305,Toronto,Toronto Division,Ontario,Canada,M2N 3C8,172.3291168
292,Global Indian Intn'L School,-77.4382789,38.8848776,Chantilly,Fairfax County,Virginia,United States,20151,294.5631624
293,Binus Intrntl School-Simprug,106.7855383,-6.2343546,Saint-Cloud,Kota Jakarta Selatan,Daerah Khusus Ibukota Jakarta,Indonesia,12220,9890.023911
294,NPS International School,-76.2367774,36.9055617,Norfolk,Hauts-de-Seine,Virginia,United States,23513,423.110718
295,Global Christian Foreign Schl,127.011745,37.536706,Saint-Cloud,Hauts-de-Seine,Seoul,South Korea,140-210,6698.614819
296,Ef International Academy,-73.768601,41.1068651,Thornwood,Westchester County,New York,United States,10594,180.4103558
297,International Sch Luxembourg,6.108323,49.600774,Luxembourg District,Hauts-de-Seine,Île-de-France,Luxembourg,1430,3761.627059
298,Linfield Christian School,-117.1100603,33.5015899,Temecula,Riverside County,California,United States,92592,2298.016335
299,Intl School Bangalore The,77.7501073,12.8912197,Bengaluru,Bengaluru,Karnataka,India,562125,8244.078397
300,British Intrntl Schl-Jakarta,106.7059414,-6.2717697,Saint-Cloud,Kota Tangerang Selatan,Banten,Indonesia,15227,9892.922856
301,Saint Pauls Girls School,-0.2189058,51.4951774,Saint-Cloud,Hauts-de-Seine,Île-de-France,United Kingdom,W6 7BS,3453.897609
302,Itesm - Sinaloa,-107.4213538,24.8011836,Culiacán Rosales,Hauts-de-Seine,Sinaloa,Mexico,80100,2172.895997
303,Beijing No. 4 School,116.379204,39.931449,Saint-Cloud,Saint-Cloud,Beijing,China,92210,6667.067398
304,Oil City Area Senior Hs,-79.6826434,41.429837,Oil City,Venango County,Pennsylvania,United States,16301,213.1512722
305,First HS of Changsha Hunan,112.988378,28.202029,Changsha Shi,Changsha Shi,Hunan Sheng,China,92210,7494.636426
306,Crescent School,-97.5893212,35.9530754,Crescent,Logan County,Oklahoma,United States,73028,1242.026112
307,St Georges School,-71.2732344,41.4909129,Middletown,Newport County,Rhode Island,United States,2842,271.0488004
308,A Beka Acad Dvd Homeschooler,-87.2378161,30.4727633,Pensacola,Escambia County,Florida,United States,32503,1061.02686
309,First Baptist Christian Academ,-95.1241489,29.648543,Pasadena,Harris County,Texas,United States,77505,1399.042467
310,Academia Europea Salvadorena,-88.157485,13.443757,San Miguel,Hauts-de-Seine,Île-de-France,El Salvador,CP 3301,2160.712121
311,Sekolah Highscope Indonesia,106.8043796,-6.2934997,Saint-Cloud,Kota Jakarta Selatan,Daerah Khusus Ibukota Jakarta,Indonesia,12430,9894.000233
312,Escola Internacional Sociesc,-48.4916922,-27.594386,Saint-Cloud,Florianópolis,Santa Catarina,Brazil,88034-001,5167.902539
313,American School Of The Hague,4.4224624,52.1461627,Wassenaar,Wassenaar,Zuid-Holland,Netherlands,2241 BX,3619.143649
314,American School Of Dubai The,55.1828875,25.0996997,Saint-Cloud,Hauts-de-Seine,Dubai,United Arab Emirates,92210,6817.080356
315,Global Jaya Internationl Schol,106.6997944,-6.2805031,Saint-Cloud,Kota Tangerang Selatan,Banten,Indonesia,15227,9893.547226
316,Thai Chinese Intl School,100.6992813,13.626919,<U+0E15><U+0E33><U+0E1A><U+0E25><U+0E1A><U+0E32><U+0E07><U+0E1E><U+0E25><U+0E35><U+0E43><U+0E2B><U+0E0D><U+0E48>,Amphoe Bang Phli,Chang Wat Samut Prakan,Thailand,10540,8526.271379
317,Toronto French School,-79.3834986,43.7284921,Toronto,Toronto Division,Ontario,Canada,M4N 1T7,170.4122317
318,Western Canada High School,-114.0772823,51.0373084,Calgary,Division No. 6,Alberta,Canada,T2S 0B5,1851.888348
319,Nakorn Payap International Sch,98.99082,18.846938,San Phi Sua,Muang,Chang Wat Chiang Mai,Thailand,50300,8161.24778
320,Bible Baptist School,-84.2763942,33.433053,Hampton,Henry County,Georgia,United States,30228,796.0041464
321,Hong Kong Academy Educ Foundtn,114.154441,22.2819939,Saint-Cloud,Hauts-de-Seine,Hong Kong Island,Hong Kong,92210,7888.925462
322,Gleneagle Secondary School,-122.8068708,49.2842188,Coquitlam,Greater Vancouver,British Columbia,Canada,V3B 7Y8,2243.984127
323,Sir John A Macdonald Sec Sch,-80.5947095,43.4711305,Waterloo,Waterloo Regional Municipality,Ontario,Canada,N2V 2V1,227.0294684
324,Montrose Christian School,-77.1026251,39.0530535,Rockville,Montgomery County,Maryland,United States,20852,279.5753861
325,International Christian School,-89.9223668,34.9640304,Southaven,DeSoto County,Mississippi,United States,38672,925.8735828
326,Bali International School,115.256945,-8.67937,Saint-Cloud,Kota Denpasar,Bali,Indonesia,80227,9966.736766
327,Dr E P Scarlett High School,-114.0879802,50.9487788,Calgary,Division No. 6,Alberta,Canada,T2W 1H4,1852.110873
328,Chatham Hall,-79.3896572,36.8263541,Chatham,Pittsylvania County,Virginia,United States,24531,462.0084115
329,Bishop James Mahoney,-106.6320253,52.1722702,Saskatoon,Division No. 11,Saskatchewan,Canada,S7K 6Y3,1543.579536
330,Aviano American Hs Dod,12.6144653,46.0359556,Castello d'Aviano,Provincia di Pordenone,Friuli-Venezia Giulia,Italy,33080,4146.352784
331,American Cmty Sch Of Abu Dhabi,54.4313071,24.4296551,Saint-Cloud,Hauts-de-Seine,Abu Dhabi,United Arab Emirates,92210,6828.985705
332,Colegio Dante Alighieri,-46.6590182,-23.5634584,Saint-Cloud,São Paulo,São Paulo,Brazil,01420-002,4951.630646
333,Ashbury College,-75.6757835,45.4477361,Ottawa,Ottawa Division,Ontario,Canada,K1M 0T3,167.9488457
334,University Of Toronto Schools,-79.4024305,43.6665705,Toronto,Toronto Division,Ontario,Canada,M5S 2R7,170.2685382
335,Hillfield Strathallan College,-79.8950953,43.2394713,Hamilton,Hamilton Division,Ontario,Canada,L9C 1G3,190.6292745
336,Colegio Notre Dame De Campinas,-47.002738,-22.8953113,Saint-Cloud,Campinas,São Paulo,Brazil,13092-621,4900.797703
337,Sahel Academy,2.1042217,13.4998538,Niamey,Kollo,Niamey Urban Community,Niger,92210,4999.827901
338,Yew Chung Int Schl-Shanghai Cp,121.5682859,31.2147223,Saint-Cloud,Saint-Cloud,Shanghai Shi,China,201203,7199.841937
339,American School Belo Horizonte,-43.9747202,-19.9765856,Saint-Cloud,Belo Horizonte,Minas Gerais,Brazil,30575-180,4794.068303
340,Father Duenas Memorial Hs,144.7876637,13.4378907,Chalan Pago Ordot,Hauts-de-Seine,Île-de-France,Guam,96910,7765.353705
341,Kings Academy,-80.181229,26.693724,West Palm Beach,Palm Beach County,Florida,United States,33411,1149.514739
342,Southern Cayuga Central School,-76.6135459,42.7341679,Aurora,Cayuga County,New York,United States,13026,32.11654995
343,Seoul International School,127.129067,37.4660604,Seongnam-si,Hauts-de-Seine,Gyeonggi-do,South Korea,461-200,6701.410598
344,Stanstead College,-72.0955143,45.0119482,Stanstead,Memphrémagog,Québec,Canada,J0B 3E0,242.965151
345,Bishop Grimes Junior-Senior Hs,-76.060529,43.077927,East Syracuse,Onondaga County,New York,United States,13057,4.642242143
346,Fraser Heights Secondary,-122.7770127,49.1978728,Surrey,Greater Vancouver,British Columbia,Canada,V4N 1M1,2243.377679
347,Delcampo International School,-87.2411951,14.0473241,Tegucigalpa,Hauts-de-Seine,Île-de-France,Honduras,0,2103.318984
348,Kaohsiung American School,120.2938264,22.6755033,Saint-Cloud,Hauts-de-Seine,Kaohsiung City,Taiwan,813,7790.327519
349,American School In Taichung,120.7441423,24.1693464,Saint-Cloud,Hauts-de-Seine,Taichung City,Taiwan,406,7683.726936
350,Lakenheath American Hs,0.536989,52.3944257,RAF Lakenheath,Hauts-de-Seine,Île-de-France,United Kingdom,IP27 9PN,3460.730891
351,Institut Le Rosey,6.3268996,46.4591491,Rolle,Hauts-de-Seine,Île-de-France,Switzerland,1180,3872.2931
352,Taipei European School,121.5195407,25.1016807,Saint-Cloud,Hauts-de-Seine,Taipei City,Taiwan,111,7610.01764
353,Bloor Collegiate Institute,-79.437146,43.6592415,Toronto,Toronto Division,Ontario,Canada,M6H 1M9,171.8425245
354,Cheshire Academy,-72.8973246,41.5012083,Cheshire,New Haven County,Connecticut,United States,6410,196.8942213
355,Lower Merion High School,-75.2796557,40.0101743,Ardmore,Montgomery County,Pennsylvania,United States,19003,213.5765163
356,Wellington College,-0.8064531,51.3646535,Saint-Cloud,Bracknell Forest,England,United Kingdom,RG45 7PU,3433.692376
357,Oldfields School,-76.6252344,39.5560702,Sparks Glencoe,Baltimore County,Maryland,United States,21152,241.6177888
358,Forman School,-73.1902742,41.7577234,Litchfield,Litchfield County,Connecticut,United States,6759,174.5828295
359,Sentinel Secondary School,-123.1503622,49.3452812,West Vancouver,Greater Vancouver,British Columbia,Canada,V7S 2R2,2258.86539
360,Chittenango Senior High School,-75.8728211,43.0447364,Chittenango,Madison County,New York,United States,13037,13.23284203
361,Saint Pauls School,-95.1656689,37.5154459,Saint Paul,Neosho County,Kansas,United States,66771,1072.541557
362,Stony Brook School,-73.1310805,40.9225887,Stony Brook,Suffolk County,New York,United States,11790,212.6301141
363,Img Academy,-82.6086662,27.4408534,Bradenton,Manatee County,Florida,United States,34210,1134.94766
364,French International School,-75.2386548,40.0020553,Bala Cynwyd,Montgomery County,Pennsylvania,United States,19004,214.5748828
365,Yale Secondary School,-122.2644639,49.0476715,Abbotsford,Fraser Valley,British Columbia,Canada,V2S 7S6,2221.588335
366,Saint Mildreds Lightbourn Sch,-79.6670126,43.4642238,Oakville,Halton Regional Municipality,Ontario,Canada,L6J 2L1,180.679057
367,Wellington College International Tianjin,117.1746,39.149162,Saint-Cloud,Saint-Cloud,Tianjin Shi,China,92210,6713.326299
368,Taipei Kuei Shan School,121.5223028,25.112998,Saint-Cloud,Hauts-de-Seine,Taipei City,Taiwan,112,7609.219789
369,Colegio Menor San Francisco,-78.4250989,-0.1983702,Quito,Metropolitan District of Quito,Pichincha,Ecuador,170157,2979.046245
370,Campion College,-76.7719408,18.0192139,Kingston,Hauts-de-Seine,St. Andrew Parish,Jamaica,92210,1723.963107
371,School Year Abroad,-71.1240653,42.7002546,North Andover,Essex County,Massachusetts,United States,1845,255.4030309
372,A N Myer Secondary School,-79.1018089,43.1223662,Niagara Falls,Niagara Regional Municipality,Ontario,Canada,L2J 1M7,150.2817124
373,Saint Johns School,-95.9791512,36.7456448,Bartlesville,Washington County,Oklahoma,United States,74003,1136.974211
374,West Springfield High School,-77.2403357,38.786203,West Springfield,Fairfax County,Virginia,United States,22152,299.0247702
375,Southridge School,-92.5461023,46.9657168,Culver,St. Louis County,Minnesota,United States,55779,846.6716877
376,St Paul Preparatory School,-93.0896911,44.948491,Saint Paul,Ramsey County,Minnesota,United States,55101,853.7451529
377,Vincent Massey Sec School,-83.0281072,42.2599317,Windsor,Essex County,Ontario,Canada,N9E 1J2,355.2611057
378,Colegio Franklin D Roosevelt,-76.9718671,-12.0774777,La Molina,Provincia de Lima,Municipalidad Metropolitana de Lima,Peru,15023,3792.32649
379,Brentwood College School,-123.5548746,48.6525171,Mill Bay,Cowichan Valley,British Columbia,Canada,V0R 2P1,2283.577109
380,Winchendon School,-72.0367516,42.6750766,Winchendon,Worcester County,Massachusetts,United States,1475,209.5568324
381,Appleby College,-79.6863069,43.4268676,Oakville,Halton Regional Municipality,Ontario,Canada,L6K 3P1,181.2936977
382,Sikkim Manipal Univ Health/Med,88.5971547,27.3172691,Gangtok,Gangtok,Sikkim,India,737102,7493.613099
383,American School Switzerland,8.9229155,45.9870553,Collina d'Oro,Lugano,Ticino,Switzerland,6926,3996.523882
384,York School,-94.7099622,37.8014304,Fort Scott,Bourbon County,Kansas,United States,66701,1041.386484
385,Heritage Woods,-90.4607576,41.467547,Moline,Rock Island County,Illinois,United States,61265,741.6455359
386,Evangelical Christian Academy,-104.797282,38.868943,Colorado Springs,El Paso County,Colorado,United States,80907,1519.143924
387,Harry Fultz Institute,19.8093402,41.3351263,Tirana,Tirana,Tirana County,Albania,1000,4627.50849
388,Havergal College,-79.4134179,43.720253,Toronto,Toronto Division,Ontario,Canada,M5N 2H9,171.7125807
389,Miss Halls School,-73.2440897,42.425876,Pittsfield,Berkshire County,Massachusetts,United States,1201,152.9925814
390,International Bilingual School,-80.2311553,25.7737098,Miami,Miami-Dade County,Florida,United States,33125,1212.39861
391,Pacific Collegiate School,-122.0598556,36.960513,Santa Cruz,Santa Cruz County,California,United States,95060,2441.673742
392,Int School Geneva Chat,-96.7581292,32.991153,Dallas,Collin County,Texas,United States,75252,1316.111849
393,Brewster Academy,-71.2064681,43.5828795,Wolfeboro,Carroll County,New Hampshire,United States,3894,251.2000622
394,Sos-Hermann Gmeiner Intl Coll,-0.018364,5.6480952,Tema,Tema Metropolitan,Greater Accra Region,Ghana,PMB,5254.11698
395,Cheltenham Ladies College,-2.081343,51.897779,Saint-Cloud,Gloucestershire,England,United Kingdom,GL50 3EP,3369.238985
396,Green Mountain Valley School,-72.850449,44.185585,Waitsfield,Washington County,Vermont,United States,5673,182.7628412
397,Bavarian International School,11.5863708,48.1758026,München,Oberbayern,Bayern,Germany,80804,4027.720828
398,Miss Porter'S School,-72.8293562,41.7224829,Farmington,Hartford County,Connecticut,United States,6032,191.9132483
399,Ecole Mondiale World School,72.833916,19.113147,Mumbai,Mumbai,Maharashtra,India,400049,7723.275483
400,Burnaby Mountain Secondary Sch,-122.9113425,49.2550356,Burnaby,Greater Vancouver,British Columbia,Canada,V3J 7X5,2248.920643
401,Mercedes-Benz International,-88.0458762,42.999368,Milwaukee,Milwaukee County,Wisconsin,United States,53227,602.8596759
402,Brighton College,-111.892196,33.552491,Scottsdale,Maricopa County,Arizona,United States,85258,2033.016801
403,Taipei Wego Private Sr High Sc,121.5039696,25.1395278,Saint-Cloud,Hauts-de-Seine,Taipei City,Taiwan,11254,7607.715282
404,American School In Japan,139.5215285,35.6815422,Chofu,Hauts-de-Seine,Tokyo,Japan,182-0031,6567.556651
405,Intl Bilingual School at Hsinchu Science Park,121.0171406,24.7780221,Saint-Cloud,Hsinchu,Hsinchu,Taiwan,300,7639.014868
406,Univ of Maryland-Baltimore,-76.6249759,39.2892131,Baltimore,Hauts-de-Seine,Maryland,United States,21201,259.93506
407,Central Peel Secondary School,-79.7512863,43.6982204,Brampton,Peel Regional Municipality,Ontario,Canada,L6V 1X4,187.7837665
408,Saint Thomas More High School,-87.8765702,42.979427,Milwaukee,Milwaukee County,Wisconsin,United States,53207,594.4093978
409,Holy Redeemer High School,-75.8846284,41.241154,Wilkes-Barre,Luzerne County,Pennsylvania,United States,18701,124.654202
410,John Rennie High School,-73.817051,45.4500249,Pointe-Claire,Communauté-Urbaine-de-Montréal,Québec,Canada,H9R 3J5,202.3819706
411,West Vancouver Secondary Sch,-123.1611377,49.3378157,West Vancouver,Greater Vancouver,British Columbia,Canada,V7V 2G7,2259.412328
412,Colegio Santa Cruz,-46.7174811,-23.5504907,Saint-Cloud,São Paulo,São Paulo,Brazil,03178-200,4949.396288
413,International Sch Of Geneva,6.1719694,46.1992119,Genève,Genève,Genève,Switzerland,1208,3874.511873
414,St Pauls School,-71.5734197,43.1948092,Concord,Merrimack County,New Hampshire,United States,3301,230.8615787
415,Elgin Park Secondary School,-122.8485889,49.045553,Surrey,Greater Vancouver,British Columbia,Canada,V4A 9V2,2247.929568
416,Yangon International School,96.1924671,16.826463,<U+101B><U+1014><U+103A><U+1000><U+102F><U+1014><U+103A>,Hauts-de-Seine,Île-de-France,Myanmar (Burma),92210,8282.829234
417,Seaquam Secondary School,-122.9019455,49.1266799,Delta,Greater Vancouver,British Columbia,Canada,V4E 2K4,2249.613003
418,American School Of Durango,-104.67381,24.020571,Durango,Hauts-de-Seine,Durango,Mexico,34000,2087.076774
419,Colegio Bandeirantes,-46.64371,-23.5775691,Saint-Cloud,São Paulo,São Paulo,Brazil,04011-001,4952.898007
420,Reitz Memorial High School,-87.536815,37.971318,Evansville,Vanderburgh County,Indiana,United States,47714,694.0010528
421,Worcester Academy,-71.791236,42.252582,Worcester,Worcester County,Massachusetts,United States,1604,227.8062247
422,American Intl Sch Of Kingston,-76.7576341,18.0201663,Kingston,Hauts-de-Seine,St. Andrew Parish,Jamaica,92210,1723.879613
423,Canford School,-1.9538411,50.7898127,Canford Magna,Poole,England,United Kingdom,BH21 3AD,3401.89804
424,Acs Egham International Sch,-0.5777847,51.4157177,Saint-Cloud,Surrey,England,United Kingdom,TW20 0HS,3441.566167
425,Latymer Upper School,-0.237084,51.4926639,Saint-Cloud,Greater London,England,United Kingdom,W6 9LR,3453.235171
426,Louis Pasteur HS,-73.7344259,40.7624372,Saint-Cloud,Queens County,New York,United States,11362,199.89516
427,Harrodian School,-0.2472933,51.4809052,Saint-Cloud,Greater London,England,United Kingdom,SW13 9QN,3453.130709
428,Bedales School,-0.941745,51.022623,Steep,Hampshire,England,United Kingdom,GU32 2DG,3437.03128
429,Sevenoaks School,0.194152,51.266995,Saint-Cloud,Kent,England,United Kingdom,TN13 1HU,3476.400842
430,South Bank Polytechnic,-0.1023327,51.4979806,Saint-Cloud,Greater London,England,United Kingdom,SE1 0AA,3458.488548
431,North London Collegiate School,-0.2954853,51.615019,Saint-Cloud,Greater London,England,United Kingdom,HA8 7RJ,3447.744006
432,American School In London,-0.1766746,51.5348361,Saint-Cloud,Greater London,England,United Kingdom,NW8 0NP,3454.560783
433,Wasatch Academy,-111.4578465,39.5448774,Mount Pleasant,Sanpete County,Utah,United States,84647,1840.519258
434,Cfs The School At Church Farm,-75.596151,40.03198,Exton,Chester County,Pennsylvania,United States,19341,209.2941843
435,Salisbury School,-73.3923196,41.998615,Salisbury,Litchfield County,Connecticut,United States,6068,157.2839818
436,Gjerasim D Qiriazi School,19.8009252,41.3419777,Tiranë,Tiranë,Qarku i Tiranës,Albania,92210,4626.872994
437,Chengdu Shude High School,103.96937,30.667629,Chengdu Shi,Chengdu Shi,Sichuan Sheng,China,610091,7358.833431
438,College Du Leman Intl School,6.159289,46.289163,Versoix,Genève,Genève,Switzerland,1290,3870.968103
439,West Island College,-73.8150307,45.4786044,Dollard-des-Ormeaux,Communauté-Urbaine-de-Montréal,Québec,Canada,H9B 2L2,204.0497443
440,Oundle School,-0.4679157,52.4815499,Oundle,Northamptonshire,England,United Kingdom,PE8 4EE,3418.995212
441,The Oratory School,-1.0582,51.532009,Woodcote,Oxfordshire,England,United Kingdom,RG8 0PJ,3419.322361
442,Bristol Free School,-2.6124687,51.5023315,Avon,City of Bristol,England,United Kingdom,BS10 6NJ,3357.478355
443,Maidstone Grammar School,0.5300377,51.2654887,Saint-Cloud,Kent,England,United Kingdom,ME15 7BT,3489.899107
444,Harington School,-74.8881666,39.9331331,Mount Laurel,Burlington County,New Jersey,United States,8054,223.7829015
445,Wilsons School,-0.1284027,51.3588789,Saint-Cloud,Hauts-de-Seine,Île-de-France,United Kingdom,SM6 9JW,3461.06145
446,Alconbury American Hs Dod,-0.262374,52.365912,Alconbury,Cambridgeshire,England,United Kingdom,92210,3429.984042
447,Bedford School,-94.7226591,40.6716736,Bedford,Taylor County,Iowa,United States,50833,970.854137
448,Graveney School,-0.152325,51.4235594,Saint-Cloud,Hauts-de-Seine,Île-de-France,United Kingdom,SW17 9BU,3458.420059
449,Strodes College,-0.5502088,51.4322543,Saint-Cloud,Surrey,England,United Kingdom,TW20 9DR,3442.247321
450,Range High School,-3.0808056,53.5445141,Formby,Merseyside,England,United Kingdom,L37 2YN,3291.575835
451,The Chase School,-2.3104207,52.1030066,Great Malvern,Worcestershire,England,United Kingdom,WR14 3NZ,3355.129773
452,St Pauls Catholic College,-0.15457,50.96637,Saint-Cloud,West Sussex,England,United Kingdom,RH15 8GA,3470.297925
453,International School Lausanne,6.6377226,46.5447102,Le Mont-sur-Lausanne,Lausanne,Vaud,Switzerland,1052,3882.392404
454,Berkhamsted Collegiate School,-0.5615175,51.7606639,Saint-Cloud,Hertfordshire,England,United Kingdom,HP4 2BB,3433.398981
455,Pinetree Secondary School,-122.7911692,49.2897875,Coquitlam,Greater Vancouver,British Columbia,Canada,V3B 7Y7,2243.232721
456,Peter Symonds College,-1.3212994,51.0720829,Saint-Cloud,Hauts-de-Seine,Île-de-France,United Kingdom,SO22 6RX,3420.405545
457,Farnborough Sixth Form College,-0.7548164,51.3056271,Saint-Cloud,Hampshire,England,United Kingdom,GU14 8JX,3437.282748
458,Cardinal Vaughan Memorial School,-0.2115053,51.5039976,Saint-Cloud,Greater London,England,United Kingdom,W14 8BZ,3453.965507
459,Mary Institute And Saint Louis,-90.397447,38.658241,St. Louis,St. Louis County,Missouri,United States,63124,804.8593193
460,Lyceum Alpinum Zuoz,9.9597685,46.6047702,Zuoz,Maloja,Graubünden,Switzerland,7524,4017.524658
461,John Bapst Memorial Hs,-68.7685524,44.8053282,Bangor,Penobscot County,Maine,United States,4401,387.1238532
462,Naples American Hs Dod,-81.7946939,26.172936,Naples,Collier County,Florida,United States,34102,1205.69653
463,Magen David Academy,-79.5916343,8.9106849,Saint-Cloud,Hauts-de-Seine,Île-de-France,Panama,92210,2359.059971
464,Union School,-95.6313375,36.9189047,Lenapah,Nowata County,Oklahoma,United States,74042,1114.331807
465,American Cooperative School,-68.0892069,-16.5429188,La Paz,Hauts-de-Seine,La Paz Department,Bolivia,92210,4130.765
466,Columbia Secondary School,-73.956061,40.810687,New York,New York County,New York,United States,10027,190.3118074
467,Thomas Jefferson School,-94.4703197,37.0995136,Joplin,Jasper County,Missouri,United States,64801,1051.944573
468,Los Angeles River School,-118.2373894,34.1021786,Los Angeles,Los Angeles County,California,United States,90065,2335.378001
469,Lake Mary Preparatory School,-81.3237143,28.7774883,Lake Mary,Seminole County,Florida,United States,32746,1024.819699
470,Shanghai American School Pudon,121.281056,31.204454,Saint-Cloud,Saint-Cloud,Shanghai Shi,China,92210,7204.391136
471,Richmond Secondary School,-123.1427059,49.1612004,Richmond,Greater Vancouver,British Columbia,Canada,V6Y 1Z3,2260.132241
472,Prince Of Peace Christian Sch,-96.8424221,33.0203057,Carrollton,Collin County,Texas,United States,75007,1318.759404
473,Montcalm Secondary School,-106.346771,56.130366,,,,Canada,,1611.069296
474,Doane Stuart School,-73.727183,42.659505,Rensselaer,Rensselaer County,New York,United States,12144,124.9963779
475,Cranbrook Kingswood School,-83.2441694,42.572605,Bloomfield Hills,Oakland County,Michigan,United States,48304,362.702029
476,Colonel Gray Sr High School,-63.1402492,46.2410926,Charlottetown,Queens County,Prince Edward Island,Canada,C1A 3Y8,676.7469265
477,Stockholm International School,18.066004,59.339103,Saint-Cloud,Hauts-de-Seine,Stockholms län,Sweden,111 38,3877.629664
478,Choate Rosemary Hall,-72.8085431,41.4580185,Wallingford,New Haven County,Connecticut,United States,6492,202.3813318
479,Saint Marys Academy,-97.2911553,37.6719589,Wichita,Sedgwick County,Kansas,United States,67218,1172.785071
480,Tanenbaum Chat Kimel Family E,-79.4574217,43.7619729,Toronto,Toronto Division,Ontario,Canada,M3H 5J8,174.5912193
481,St Mary Catholic Secondary Sch,-79.123467,43.8347624,Pickering,Durham Regional Municipality,Ontario,Canada,L1V 1R9,160.1316762
482,American School Of Milan,9.2165766,45.3931785,Noverasco di Opera,Città Metropolitana di Milano,Lombardia,Italy,20090,4029.708283
483,Mithibai Coll of Arts,72.8374303,19.1028892,Mumbai,Mumbai,Maharashtra,India,400056,7724.013657
484,Intl Christian School Of Lima,-77.0410937,-12.1141262,Miraflores,Provincia de Lima,Municipalidad Metropolitana de Lima,Peru,15073,3794.909299
485,New Westminster School,-122.9290843,49.2159249,New Westminster,Greater Vancouver,British Columbia,Canada,V3M 3S9,2250.05402
486,Escola Graduada De Sao Paulo,-46.73402,-23.620221,Saint-Cloud,São Paulo,São Paulo,Brazil,05642-000,4953.438275
487,Western Reserve Academy,-81.4364761,41.2455352,Hudson,Summit County,Ohio,United States,44236,299.0673587
488,Saint Johns Preparatory,-70.9526942,42.5826313,Danvers,Essex County,Massachusetts,United States,1923,265.151679
489,Cowichan Secondary School,-123.7011061,48.780887,Duncan,Cowichan Valley,British Columbia,Canada,V9L 2X2,2288.897328
490,Rabat American School,-6.854782,33.991658,Rabat,Hauts-de-Seine,Rabat-Salé-Kénitra,Morocco,10080,3699.299922
491,Stuttgart High School,-91.557894,34.4791669,Stuttgart,Arkansas County,Arkansas,United States,72160,1018.34964
492,Bristol Grammar School,-2.605737,51.458205,Saint-Cloud,City of Bristol,England,United Kingdom,BS8 1SR,3358.823152
493,El Camino Academy,-74.043471,4.798141,Bogotá,Hauts-de-Seine,Bogotá,Colombia,111166,2635.461501
494,Bishop Seabury Academy,-95.2931868,38.9434156,Lawrence,Douglas County,Kansas,United States,66047,1038.231851
495,Vincent Massey Collegiate,-73.571399,45.563975,Montréal,Communauté-Urbaine-de-Montréal,Québec,Canada,H1T 3J5,215.7787873
496,Trinity College School,-78.2832083,43.9608675,Port Hope,Northumberland County,Ontario,Canada,L1A 4K7,125.4048004
497,Korea International School,127.0982107,37.3775605,Bundang-gu,Gyeonggi-do,Seongnam,South Korea,92210,6707.743703
498,Sir Winston Churchill Sec Sch,-123.1252003,49.2205154,Vancouver,Greater Vancouver,British Columbia,Canada,V6P 3P7,2258.820711
499,Silverthorn Collegiate Inst,-79.5802096,43.6379231,Toronto,Toronto Division,Ontario,Canada,M9C 1Y5,178.5115732
500,Saint Thomas High School,-95.4087254,29.7636377,Houston,Harris County,Texas,United States,77007,1405.174181
501,Alliance Academy International,-78.488781,-0.1725764,Quito,Distrito Metropolitano de Quito,Pichincha,Ecuador,17-11-06186,2977.467216
502,Santa Cruz Christian Learn Ctr,-63.2307368,-17.8351702,Santa Cruz de la Sierra,Provincia de Andrés Ibáñez,Departamento de Santa Cruz,Bolivia,92210,4267.579517
503,Wayland Academy,-88.8274211,43.4573958,Beaver Dam,Dodge County,Wisconsin,United States,53916,640.5869806
504,Suffield Academy,-72.650345,41.984799,Suffield,Hartford County,Connecticut,United States,6078,192.1507617
505,Ecole Active Bilingue Jm,2.2907822,48.8473258,Paris,Paris,Île-de-France,France,75015,3629.399769
506,Stamford American International School,103.8689,1.33721,Saint-Cloud,Hauts-de-Seine,Île-de-France,Singapore,357684,9375.972689
507,Escuela Campo Alegre,-66.8694341,10.4823482,Caracas,Baruta,Distrito Capital,Venezuela,1080,2310.246535
508,The Country Day School,-77.1602328,38.9476156,McLean,Fairfax County,Virginia,United States,22101,287.2850633
509,Tecnologico De Monterrey,-100.28954,25.6515649,Monterrey,Hauts-de-Seine,Nuevo León,Mexico,64849,1816.30521
510,European School Varese,8.8094003,45.8316127,Varese,Provincia di Varese,Lombardia,Italy,21100,3997.263287
511,Staples High School,-73.328314,41.1544307,Westport,Fairfield County,Connecticut,United States,6880,194.1292416
512,American Cmty School Athens,23.816052,38.0180441,Chalandri,Hauts-de-Seine,Île-de-France,Greece,152 34,4937.566714
513,Nazarbayev Intellectual School Karaganda,73.1481251,49.7909793,Karaganda,Hauts-de-Seine,Qaragandi oblisi,Kazakhstan,100000,5775.771099
514,Univ of Coimbra,-8.4241509,40.2089072,Coimbra,Hauts-de-Seine,Coimbra,Portugal,3004-531,3413.974705
515,New Hampton School,-71.6520255,43.6075733,New Hampton,Belknap County,New Hampshire,United States,3256,229.2671948
516,American Intl School Capetown,18.4393089,-34.0489326,Cape Town,Hauts-de-Seine,Île-de-France,South Africa,7806,7971.932867
517,International Sch Zug & Luzern,8.5572942,47.2103942,Baar,Zug,Zug,Switzerland,6340,3939.101368
518,Carol Morgan School,-69.9516839,18.4475889,Santo Domingo,Hauts-de-Seine,Distrito Nacional,Dominican Republic,92210,1732.317437
519,International School Manila,121.0582233,14.553769,Taguig,Hauts-de-Seine,Metro Manila,Philippines,92210,8321.329895
520,Asheville School,-82.624275,35.564405,Asheville,Buncombe County,North Carolina,United States,28806,621.4758213
521,Loretto Abbey Catholic Sec Sch,-79.4101741,43.7407791,Toronto,Toronto Division,Ontario,Canada,M5M 3E2,171.9232779
522,Athenian School,-121.9501448,37.8339648,Danville,Contra Costa County,California,United States,94506,2411.729981
523,University Hill Secondary Sch,-123.2398629,49.2539758,Vancouver,Greater Vancouver,British Columbia,Canada,V6S 0C6,2263.672345
524,William Aberhart High School,-114.1150692,51.0788398,Calgary,Division No. 6,Alberta,Canada,T2M 4G9,1853.653321
525,Pickering College,-79.4520856,44.0469484,Newmarket,York Regional Municipality,Ontario,Canada,L3Y 4X2,180.5960454
526,Elmwood School,-94.1364462,36.3176997,Rogers,Benton County,Arkansas,United States,72758,1062.841044
527,British Intl School Phuket,98.3702489,7.9506299,Saint-Cloud,Mueang Phuket District,Phuket,Thailand,83000,8904.663953
528,St Margarets School,-76.8560744,37.9265245,Tappahannock,Essex County,Virginia,United States,22560,354.7085368
529,Southbank International School,-0.1411566,51.5231446,Saint-Cloud,Greater London,England,United Kingdom,W1T 6BN,3456.283579
530,Colegio Intnl De Carabobo,-67.9895782,10.2198743,Valencia,Valencia,Carabobo,Venezuela,2001,2312.57805
531,Caseville Public High School,-83.2684711,43.9424932,Caseville,Huron County,Michigan,United States,48725,363.8760641
532,Providence High School,-80.7636482,35.1108421,Charlotte,Mecklenburg County,North Carolina,United States,28270,600.5585529
533,Al Mawakeb School : Al Barsha,55.201725,25.104581,Saint-Cloud,Dubai,Dubai,United Arab Emirates,92210,6817.455724
534,American Intl School Riyadh,46.6346445,24.8474708,<U+0627><U+0644><U+0631><U+064A><U+0627><U+0636>,Riyadh,Riyadh,Saudi Arabia,92210,6516.638131
535,Moscrop Secondary School,-123.0047438,49.2432792,Burnaby,Greater Vancouver,British Columbia,Canada,V5G 2G3,2253.214396
536,Harare International School,31.0558712,-17.7587615,Harare,Harare,Harare Province,Zimbabwe,92210,7906.302161
537,Macris School,-87.1519514,14.1069814,Tegucigalpa,Hauts-de-Seine,Francisco Morazán Department,Honduras,92210,2097.71491
538,Saint Andrews Scots School,-58.4823633,-34.5043702,Olivos,Vicente López Partido,Buenos Aires Province,Argentina,92210,5450.858858
539,Royal High School-Bath,-2.365462,51.396915,Saint-Cloud,Hauts-de-Seine,Île-de-France,United Kingdom,BA1 5SZ,3370.034421
540,Gunnery,-73.3115905,41.6279566,Washington,Litchfield County,Connecticut,United States,6793,174.2235469
541,West Point Grey Academy,-123.2003121,49.2665672,Vancouver,Greater Vancouver,British Columbia,Canada,V6R 4P9,2261.787329
542,International Amer School,-122.4244372,37.7721549,San Francisco,San Francisco County,California,United States,94102,2437.239811
543,Trinity School At River Ridge,-93.107617,44.859823,Eagan,Dakota County,Minnesota,United States,55121,854.3368957
544,North Broward School,-80.182396,26.3264606,Coconut Creek,Broward County,Florida,United States,33073,1174.40452
545,Aba-An Ib World School,58.4460211,23.5843866,Muscat,Hauts-de-Seine,Île-de-France,Oman,92210,7016.352182
546,American Intrntl School Muscat,58.3824588,23.5692059,Muscat,Hauts-de-Seine,Muscat Governorate,Oman,92210,7015.096526
547,Michael E Debakey High School,-95.4085531,29.7052605,Houston,Harris County,Texas,United States,77030,1408.056685
548,Riffa Views International School,50.5623651,26.101477,Al Mazrowiah,Hauts-de-Seine,Southern Governorate,Bahrain,92210,6595.611271
549,St Christopher'S School,-77.5218213,37.5793605,Richmond,Hauts-de-Seine,Virginia,United States,23226,383.6611857
550,Chadwick International School,126.643737,37.399807,Saint-Cloud,Hauts-de-Seine,Incheon,South Korea,406-082,6713.46205
551,Ibn Khuldoon National Sch,50.5507646,26.1585856,Isa Town,Hauts-de-Seine,Central Governorate,Bahrain,92210,6592.00824
552,College Louise Wegmann,35.5142927,33.8749154,Bayrut,Beirut,Beirut Governorate,Lebanon,92210,5609.002202
553,American Community School,-73.9702279,40.7533956,New York,New York County,New York,United States,10017,193.1242648
554,College Protestant Francais,35.4768642,33.8916442,Bayrut,Beirut,Beirut Governorate,Lebanon,92210,5606.685338
555,American International School,114.178363,22.331675,Saint-Cloud,Hauts-de-Seine,Kowloon,Hong Kong,92210,7885.323424
556,Lawrenceville School,-74.7249281,40.294186,Lawrence Township,Mercer County,New Jersey,United States,8648,202.8852137
557,Tilton School,-71.589595,43.4448112,Tilton,Belknap County,New Hampshire,United States,3276,231.0349448
558,Seoul Foreign School,126.9378412,37.5691288,Saint-Cloud,Seodaemun-gu,Seoul,South Korea,120-110,6697.644714
559,Greenwood College School,-79.386531,43.700202,Toronto,Toronto Division,Ontario,Canada,M4S 2L8,170.0599714
560,David G Farragut Hs Dod,-3.74922,40.463667,,,,Spain,,3624.629216
561,Millfield School,-2.729643,51.124374,Saint-Cloud,Hauts-de-Seine,Île-de-France,United Kingdom,BA16 0YD,3361.960979
562,Konawaena High School,-155.9160196,19.5092849,Kealakekua,Hawaii County,Hawaii,United States,96750,4809.23943
563,Saint Clements School,-87.6466288,41.928552,Chicago,Cook County,Illinois,United States,60614,592.6595266
564,Niva International School,100.6294438,13.802777,Saint-Cloud,Hauts-de-Seine,BANGKOK,Thailand,10240,8513.967822
565,Raha International School,54.575099,24.4341,Saint-Cloud,Hauts-de-Seine,Abu Dhabi,United Arab Emirates,92210,6833.814272
566,Shawnigan Lake School,-123.6371187,48.6554964,Shawnigan Lake,Cowichan Valley,British Columbia,Canada,V0R 2W1,2287.270965
567,White Rock Christian Academy,-122.8023281,49.0433359,Surrey,Greater Vancouver,British Columbia,Canada,V4A 4P1,2245.865313
568,Thakur Coll of Engr/Tech,72.8739824,19.2063156,Mumbai,Mumbai,Maharashtra,India,400101,7718.473785
569,Kings School Canterbury,1.0825346,51.2816216,Saint-Cloud,Kent,England,United Kingdom,CT1 2ES,3511.561395
570,Santa Barbara Senior High Scho,-119.6943669,34.4293536,Santa Barbara,Santa Barbara County,California,United States,93103,2398.644326
571,Saint Paul Preparatory School,-93.0896911,44.948491,Saint Paul,Ramsey County,Minnesota,United States,55101,853.7451529
572,International School Of Turin,7.7904757,45.0146923,Chieri,Città Metropolitana di Torino,Piemonte,Italy,10023,3983.223032
573,Chapel School,-97.1561514,36.8117,Ponca City,Kay County,Oklahoma,United States,74601,1192.430771
574,American School Of Guatemala,-90.4912873,14.6049426,Guatemala,Hauts-de-Seine,Guatemala,Guatemala,92210,2135.949361
575,Yongsan Intl School Seoul,127.000578,37.540559,Saint-Cloud,Hauts-de-Seine,Seoul,South Korea,92210,6698.537606
576,Queens College,-73.8194606,40.7363725,Saint-Cloud,Queens County,New York,United States,11367,198.6622347
577,Ruamrudee International School,100.7272844,13.7837648,Saint-Cloud,Hauts-de-Seine,Krung Thep Maha Nakhon,Thailand,10510,8515.591303
578,Buenos Aires Intrntl Christian,-58.5471042,-34.4459101,San Fernando,San Fernando,Provincia de Buenos Aires,Argentina,B1646,5446.097324
579,Saint Augustine High School,-117.124077,32.734726,San Diego,San Diego County,California,United States,92104,2324.618327
580,Palos Verdes Peninsula Hs,-118.373335,33.7783305,Rolling Hills Estates,Los Angeles County,California,United States,90274,2352.808239
581,Dakar Academy,-17.4368167,14.7301329,Dakar,Hauts-de-Seine,Dakar Region,Senegal,92210,3959.058643
582,Isha Home School,76.7373363,10.9841711,Coimbatore,Coimbatore,Tamil Nadu,India,641114,8339.642678
583,Colegio Brains,-3.631788,40.530412,Alcobendas,Madrid,Comunidad de Madrid,Spain,28109,3627.888001
584,Oakville Trafalgar High School,-79.6542454,43.4723402,Oakville,Halton Regional Municipality,Ontario,Canada,L6J 3L6,180.1244092
585,College Jean-De-Brebeuf,-73.6231166,45.5010463,Montréal,Communauté-Urbaine-de-Montréal,Québec,Canada,H3T 1C1,210.7977124
586,International Schule,-73.908269,45.416798,Baie-d'Urfé,Communauté-Urbaine-de-Montréal,Québec,Canada,H9X 2H9,197.9553479
587,Ecole Bilingue Internationale,-73.6718291,45.5350856,Montréal,Communauté-Urbaine-de-Montréal,Québec,Canada,H4N 2S1,211.2727826
588,Kyiv International School,30.3844231,50.4494126,Kyiv,Kyiv City,Île-de-France,Ukraine,2000,4628.606856
589,Colegio Alberto Einstein,-78.4789681,-0.0924182,Quito,Distrito Metropolitano de Quito,Pichincha,Ecuador,170134,2971.935189
590,Keystone Academy,-83.506178,42.173745,Belleville,Wayne County,Michigan,United States,48111,380.4783156
591,Saint Johns College,-76.491536,38.981963,Annapolis,Anne Arundel County,Maryland,United States,21401,280.4900384
592,Home-schooled Outside United States,-95.712891,37.09024,Saint-Cloud,Hauts-de-Seine,Île-de-France,United States,92210,1112.765959
593,International Sch Stuttgart,9.1638801,48.7394498,Stuttgart,Stuttgart,Baden-Württemberg,Germany,70597,3911.800629
594,Lincoln International Academy,-86.2231548,12.0859382,Managua,Hauts-de-Seine,Managua Department,Nicaragua,92210,2215.671596
595,Colegio Americano De Quito,-78.4648931,-0.0843277,Quito DC,Distrito Metropolitano de Quito,Pichincha,Ecuador,170120,2971.337163
596,High Sch Capital Normal Univ,104.195397,35.86166,,,,China,,7000.8465
597,Dwight School Seoul,126.885045,37.5840147,Seoul,Hauts-de-Seine,Île-de-France,South Korea,92210,6697.495518
598,International School Brussels,4.417255,50.79087,Watermaal-Bosvoorde,Hauts-de-Seine,Brussels Hoofdstedelijk Gewest,Belgium,1170,3658.10299
599,Seoul Global High School,126.995978,37.5913374,Saint-Cloud,Hauts-de-Seine,Seoul,South Korea,110-521,6695.257833
600,The Perkiomen School,-75.503798,40.399673,Pennsburg,Montgomery County,Pennsylvania,United States,18073,184.9510705
601,International School Of Monaco,7.4274218,43.7333838,Monaco,Hauts-de-Seine,Île-de-France,Monaco,98000,4013.012175
602,Greengates School,-99.2618219,19.4848497,Naucalpan de Juárez,Hauts-de-Seine,Estado de México,Mexico,53200,2107.994092
603,Oakridge International School Vizag,83.314446,17.716171,Visakhapatnam,Visakhapatnam,Andhra Pradesh,India,530003,8052.038498
604,Brookline High School,-71.1291087,42.3331401,Brookline,Norfolk County,Massachusetts,United States,2445,259.4290451
605,Matignon High School,-71.1313553,42.4016029,Cambridge,Middlesex County,Massachusetts,United States,2140,258.3353379
606,Stuart Hall,-94.5872882,39.0872565,Kansas City,Jackson County,Missouri,United States,64108,999.2789156
607,Trinity Christian High School,-121.9043895,36.6129387,Monterey,Monterey County,California,United States,93940,2443.858644
608,Brent Internationl Schl Baguio,120.6034488,16.4147246,Baguio,Benguet,Cordillera Administrative Region,Philippines,92210,8204.665383
609,Singapore Intl Schl Hong Kong,114.1679906,22.2450649,Saint-Cloud,Hauts-de-Seine,Hong Kong Island,Hong Kong,92210,7891.316568
610,Taejon Christian Intl School,127.398276,36.416102,Saint-Cloud,Hauts-de-Seine,Daejeon,South Korea,92210,6766.296641
611,International Schl Hcmc,106.747517,10.806076,Saint-Cloud,H<U+1ED3> Chí Minh,H<U+1ED3> Chí Minh,Vietnam,700000,8720.86172
612,International Community School,-84.2901027,33.8025149,Decatur,DeKalb County,Georgia,United States,30033,774.7828637
613,American Intl School Chennai,80.246351,12.981705,Chennai,Chennai,Tamil Nadu,India,600113,8297.615175
614,German Swiss International Sch,114.1615628,22.265971,Saint-Cloud,Hauts-de-Seine,Hong Kong Island,Hong Kong,92210,7889.951605
615,Saint Timothys School,-78.644301,35.841234,Raleigh,Wake County,North Carolina,United States,27609,514.2309307
616,Fort Hamilton High School,-74.0392943,40.6271178,Saint-Cloud,Kings County,New York,United States,11209,198.396233
617,Oakridge International School,78.3638947,17.4191058,Hyderabad,Hyderabad,Telangana,India,500008,7967.945966
618,Kent School,-73.4826493,41.7267191,Kent,Litchfield County,Connecticut,United States,6757,163.066442
619,Saigon South International Sch,106.708871,10.721827,Saint-Cloud,Qu<U+1EAD>n 7,H<U+1ED3> Chí Minh,Vietnam,92210,8726.764721
620,Academia Los Pinares Hs,-87.1542513,14.1393379,Saint-Cloud,Hauts-de-Seine,Departamento de Francisco Morazán,Honduras,92210,2095.620447
621,American School Of Tampico The,-97.8963464,22.29646,Tampico,Hauts-de-Seine,Tamaulipas,Mexico,89320,1899.112544
622,Chengdu Foreign Language Sch,103.980516,30.733472,Chengdu,Chengdu,Île-de-France,China,611731,7354.29669
623,Shanghai United International Sch Gubei Secondary,121.40646,31.189341,Saint-Cloud,Saint-Cloud,Shanghai Shi,China,200336,7203.727105
624,Saint Annes-Belfield,-78.5155064,38.0426208,Charlottesville,Hauts-de-Seine,Virginia,United States,22903,366.706771
625,Catholic Memorial High School,-88.2203412,43.0024328,Waukesha,Waukesha County,Wisconsin,United States,53186,611.6578498
626,Al-Rowad International Schools,46.7037408,24.7564552,Riyadh,Hauts-de-Seine,Riyadh Province,Saudi Arabia,12473,6524.247197
627,Symbiosis International School,73.9074192,18.5654227,Pune,Pune,Maharashtra,India,411014,7785.906277
628,Shri Ram School - Aravali,77.0858757,28.4666402,Gurugram,Gurugram,Haryana,India,122002,7225.795468
629,Sant Anna International School,-46.9817714,-23.025649,Saint-Cloud,Vinhedo,São Paulo,Brazil,13280-000,4909.606819
630,Las Lomas High School,-122.0560453,37.8908607,Walnut Creek,Contra Costa County,California,United States,94596,2415.494283
631,United World Colg Maastricht,5.7241083,50.8553679,Maastricht,Maastricht,Limburg,Netherlands,6225 XP,3707.815749
632,Villa Maria Academy,-75.5071284,40.04078,Malvern,Chester County,Pennsylvania,United States,19355,209.3585028
633,Pacific American School,121.0041282,24.8228314,Saint-Cloud,Hsinchu County,Île-de-France,Taiwan,302,7636.200508
634,Shenzhen Foreign Languages Sch,114.093636,22.547956,Shenzhen,Shenzhen,Île-de-France,China,518000,7871.363282
635,Lincoln School,-71.3828549,41.8330917,Providence,Providence County,Rhode Island,United States,2906,256.7090605
636,A Philip Randolph Campus High,-73.9501148,40.8183975,New York,New York County,New York,United States,10031,190.059706
637,Colegio San Silvestre,-77.0404348,-12.1155223,Miraflores,Provincia de Lima,Municipalidad Metropolitana de Lima,Peru,15074,3795.004623
638,Dhahran High School,50.1681337,26.3235043,Az Zahran,Hauts-de-Seine,Eastern Province,Saudi Arabia,34451,6568.830433
639,Hankuk Acad Of Foreign Studies,127.2694874,37.3383892,Yongin-si,Hauts-de-Seine,Gyeonggi-do,South Korea,449-850,6707.583532
640,Grier School,-78.1934466,40.6462019,Birmingham,Huntingdon County,Pennsylvania,United States,16686,196.2946895
641,Inanc High School,29.4826699,40.7828487,Saint-Cloud,Gebze,Kocaeli,Turkey,41400,5038.346918
642,The Governor's Academy,-70.9010228,42.7527045,Newbury,Essex County,Massachusetts,United States,1922,266.2738696
643,FIITJEE Junior College,78.4098788,17.498248,Hyderabad,Hyderabad,Telangana,India,500072,7963.893323
644,Morrison Academy,120.6790218,24.187606,Saint-Cloud,Hauts-de-Seine,Taichung City,Taiwan,406,7683.434282
645,International Programs School,50.186147,26.337481,Al Khobar,Hauts-de-Seine,Eastern Province,Saudi Arabia,34236,6568.714589
646,Chengdu No 7 High School,104.0765154,30.5952223,Chengdu Shi,Chengdu Shi,Sichuan Sheng,China,610041,7363.808017
647,Independent Schools Foundation,114.129835,22.264562,Saint-Cloud,Hauts-de-Seine,Hong Kong Island,Hong Kong,92210,7890.337136
648,Newton South High School,-71.1862541,42.3136457,Newton,Middlesex County,Massachusetts,United States,2459,256.8691532
649,United Nations Intl Sch Hanoi,105.8077789,21.0743045,Saint-Cloud,Tây H<U+1ED3>,Hà N<U+1ED9>i,Vietnam,92210,8017.522531
650,Sekolah Pelita Harapan Intrntl,106.6059538,-6.2406945,Saint-Cloud,Tangerang,Banten,Indonesia,15810,9891.196178
651,Centralia High School,-89.103962,38.5185247,Centralia,Marion County,Illinois,United States,62801,747.3058258
652,British International School of Kuala Lumpur,101.6068523,3.1362464,Petaling Jaya,Hauts-de-Seine,Selangor,Malaysia,47800,9249.262294
653,Smic Private School,104.195397,35.86166,,,,China,,7000.8465
654,Modern School Barakhamba Road,77.2292304,28.6283996,New Delhi,New Delhi,Delhi,India,110001,7218.265968
655,American School Antananarivo,47.5337569,-18.8714847,Antananarivo,Analamanga,Antananarivo Province,Madagascar,92210,8786.890786
656,White Pigeon High School,-85.6377061,41.8041581,White Pigeon,St. Joseph County,Michigan,United States,49099,493.1424444
657,Istanbul International Cmty Sc,28.5788405,41.1196747,Saint-Cloud,Büyükçekmece,Istanbul,Turkey,34500,4987.720449
658,Ross School,-72.2422083,40.9687156,East Hampton,Suffolk County,New York,United States,11937,245.9791891
659,Saddle River Day School,-74.086102,41.030314,Saddle River,Bergen County,New Jersey,United States,7458,174.0491996
660,Staten Island Academy,-74.10936,40.5949502,Saint-Cloud,Richmond County,New York,United States,10304,198.3465476
661,Dover High School,-93.1171024,35.3969915,Dover,Pope County,Arkansas,United States,72837,1049.876134
662,Dos Pueblos High School,-119.8792207,34.4392099,Goleta,Santa Barbara County,California,United States,93117,2407.68971
663,Mahindra United World College,73.5846941,18.5431803,Pune,Pune,Maharashtra,India,412108,7778.919533
664,Saint Bernard School,-72.0995969,41.4691703,Montville,New London County,Connecticut,United States,6382,233.4468404
665,Korea International School-Jeju,126.284004,33.288923,Seogwipo,Hauts-de-Seine,Jeju-do,South Korea,699-930,6990.959995
666,Amicitia American School Fes,-4.9921811,34.0045869,Fes,Hauts-de-Seine,Île-de-France,Morocco,92210,3789.671061
667,Dominican High School,-87.909845,43.1194258,Milwaukee,Milwaukee County,Wisconsin,United States,53217,595.4254368
668,Herzliah High School,-73.6316934,45.489855,Montréal,Communauté-Urbaine-de-Montréal,Québec,Canada,H3W 1P2,209.9300451
669,Step By Step School,-77.880244,40.802643,State College,Centre County,Pennsylvania,United States,16803,178.5851483
670,Dubai International Academy,55.1791366,25.0782541,Saint-Cloud,Hauts-de-Seine,Dubai,United Arab Emirates,92210,6818.178016
671,Saint Andrew'S Junior College,103.8631747,1.3332507,Singapore,Hauts-de-Seine,Île-de-France,Singapore,357691,9376.244725
672,Bandung Alliance Intl School,107.4663402,-6.8687102,Saint-Cloud,Kabupaten Bandung Barat,Jawa Barat,Indonesia,40553,9930.269556
673,Ritsumeikan Uji Jr/Sr High Sch,135.796625,34.868984,Uji,Hauts-de-Seine,Kyoto Prefecture,Japan,611-0031,6704.645503
674,Middlesex School,-71.3713737,42.4935547,Concord,Middlesex County,Massachusetts,United States,1742,245.0832561
675,MIT Vishwashanti Gurukul School,74.0255257,18.4923886,Loni Kalbhor,Loni Kalbhor,Maharashtra,India,412201,7793.576245
676,Oklahoma Bible Academy,-97.9508578,36.4034679,Enid,Garfield County,Oklahoma,United States,73703,1244.650095
677,Qsi Intl School Of Shekou,113.9136342,22.4814525,Shenzhen Shi,Shenzhen Shi,Guangdong Sheng,China,92210,7877.508693
678,Chongqing Foreign Language Sch,106.481848,29.533643,Saint-Cloud,Saint-Cloud,Chongqing,China,92210,7434.19842
679,Ningbo Binhai International Cooperative School,121.8850892,29.4578131,Ningbo Shi,Ningbo Shi,Zhejiang Sheng,China,315700,7313.191704
680,Bahrain Bayan School,50.5491434,26.1613836,<U+0645><U+062F><U+064A><U+0646><U+0629> <U+0639><U+064A><U+0633><U+0649>,Hauts-de-Seine,Île-de-France,Bahrain,92210,6591.793232
681,International School Tianjin,117.275851,39.031884,Saint-Cloud,Saint-Cloud,Tianjin Shi,China,300350,6720.373789
682,Christ'S College,0.1224627,52.2062306,Saint-Cloud,Cambridgeshire,England,United Kingdom,CB2 3BU,3449.20893
683,Colegio Britanico De Costa Ric,-84.1336127,9.9500809,San José,Hauts-de-Seine,San José Province,Costa Rica,92210,2328.962416
684,Daewon Foreign Language Hs,127.0891321,37.5636956,Saint-Cloud,Hauts-de-Seine,Seoul,South Korea,143-220,6695.603341
685,Affiliated Hs S China Normal,104.195397,35.86166,,,,China,,7000.8465
686,Bugil Academy,127.158167,36.8319053,Cheonan-si,Hauts-de-Seine,Chungcheongnam-do,South Korea,330-160,6742.785792
687,Tianjin International School,117.275851,39.031884,Saint-Cloud,Saint-Cloud,Tianjin Shi,China,300350,6720.373789
688,High Schl Shanghai Jiao Tong U,121.488953,31.319705,Saint-Cloud,Saint-Cloud,Shanghai Shi,China,92210,7193.871406
689,Montrose School,-71.3058582,42.1879146,Medfield,Norfolk County,Massachusetts,United States,2052,253.0097752
690,Gyeonggi Suwon International,127.074358,37.260657,Yeongtong-gu,Suwon-si,Gyeonggi-do,South Korea,92210,6715.840175
691,Saint Josephs Institution,-96.3919628,36.4122915,Hominy,Osage County,Oklahoma,United States,74035,1168.183428
692,RDFZ Chaoyang Branch School,116.312477,39.973592,Saint-Cloud,Saint-Cloud,Beijing Shi,China,100080,6664.758964
693,United World College Changshu,120.752481,31.654375,Suzhou,Suzhou,Jiangsu,China,92210,7181.088833
694,Jiangsu Tianyi High School,120.363838,31.590602,Wuxi Shi,Wuxi Shi,Jiangsu Sheng,China,92210,7190.32514
695,NCPA-Guangzhou Fok Ying Tung HS,113.611978,22.76407,Guangzhou Shi,Guangzhou Shi,Guangdong Sheng,China,92210,7860.883719
696,Shenzhen Vanke Meisha Academy,114.313296,22.599214,Shenzhen,Shenzhen,Guangdong,China,518083,7865.865804
697,Wesley International School,-84.3805842,33.7466638,Atlanta,Fulton County,Georgia,United States,30312,780.822625
698,Shattuck-Saint Marys School,-93.260187,44.3022459,Faribault,Rice County,Minnesota,United States,55021,861.0916373
699,Chapel Field Christian Hs,-74.2456175,41.6023382,Pine Bush,Orange County,New York,United States,12566,138.4508571
700,Bishop John J Snyder Hs,-81.8372673,30.2523465,Jacksonville,Duval County,Florida,United States,32210,936.2298548
701,Trinity Academy Of Raleigh,-78.6970846,35.9116744,Raleigh,Wake County,North Carolina,United States,27613,510.2748852
702,Shanghai United International School,121.40646,31.189341,Saint-Cloud,Saint-Cloud,Shanghai Shi,China,200336,7203.727105
703,International Sch Kuala Lumpur,101.7314436,3.1373413,Kuala Lumpur,Hauts-de-Seine,Wilayah Persekutuan Kuala Lumpur,Malaysia,55100,9249.519554
704,Saint Marys College Hs,-122.2835893,37.8829087,Albany,Alameda County,California,United States,94706,2427.133484
705,Cicero-North Syracuse Hs,-76.1038117,43.1745123,Cicero,Onondaga County,New York,United States,13039,9.568906035
706,International School Choueifat,35.5217097,33.8087976,Chouaifet El Aamroussieh,Aalay,Mount Lebanon Governorate,Lebanon,92210,5612.603923
707,Delaware County Christian Sch,-75.383838,39.998916,Saint-Cloud,Delaware County,Pennsylvania,United States,19073,213.2864333
708,Sagesse High School,35.5848759,33.8652486,Beirut,Matn,Beirut Governorate,Lebanon,92210,5612.276066
709,Mccallie School,-85.2626264,35.0278771,Chattanooga,Hamilton County,Tennessee,United States,37404,738.3374405
710,Stoneleigh-Burnham School,-72.5862006,42.614326,Greenfield,Franklin County,Massachusetts,United States,1301,182.6016669
711,Capital High School,-116.2828914,43.6433653,Boise,Ada County,Idaho,United States,83704,2003.411246
712,Nfty-Eie High School - Israel,-73.9746705,40.7496256,New York,New York County,New York,United States,10017,193.2064822
713,Logos International School,104.871904,11.584873,Phnom Penh,Hauts-de-Seine,Île-de-France,Cambodia,12000,8671.237102
714,Las Cruces High School,-106.7657067,32.2916247,Las Cruces,Doña Ana County,New Mexico,United States,88001,1822.332896
715,Pope John Paul Ii High School,-75.5089313,40.1982979,Royersford,Montgomery County,Pennsylvania,United States,19468,198.6078885
716,Lawrence Academy,-71.5667343,42.6052539,Groton,Middlesex County,Massachusetts,United States,1450,233.9604665
717,Temple City High School,-118.0643915,34.1175529,Temple City,Los Angeles County,California,United States,91780,2326.122096
718,Rosslyn Academy,36.8089387,-1.2249962,Nairobi,Hauts-de-Seine,Nairobi County,Kenya,92210,7426.666088
719,American School Of Kinshasa,15.3172896,-4.3074557,Kinshasa,Hauts-de-Seine,Île-de-France,Congo - Kinshasa,92210,6495.446207
720,Putney School,-72.552462,42.9883891,Putney,Windham County,Vermont,United States,5346,181.4458014
721,Westover School,-73.1232078,41.5256371,Middlebury,New Haven County,Connecticut,United States,6762,186.2703846
722,Jenks High School,-95.9695828,36.0261835,Jenks,Tulsa County,Oklahoma,United States,74037,1161.032491
723,Saint Johns Preparatory School,-70.9526942,42.5826313,Danvers,Essex County,Massachusetts,United States,1923,265.151679
724,GEMS Wellington International School,55.1840527,25.1117894,Saint-Cloud,Hauts-de-Seine,Dubai,United Arab Emirates,92210,6816.428516
725,Saint Lawrence Seminary,-88.249395,43.823807,Mount Calvary,Fond du Lac County,Wisconsin,United States,53057,611.4063017
726,International School Of Berne,7.5146818,46.930194,Muri bei Bern,Bern,Bern,Switzerland,3073,3905.779422
727,Qsi International Schl Tbilisi,44.762401,41.803445,<U+10D7><U+10D1><U+10D8><U+10DA><U+10D8><U+10E1><U+10D8>,Hauts-de-Seine,Île-de-France,Georgia,126,5535.610978
728,Pennington School,-74.7941588,40.3277037,Pennington,Mercer County,New Jersey,United States,8534,199.4500056
729,Phillips Academy,-71.1322796,42.6471655,Andover,Essex County,Massachusetts,United States,1810,255.4564453
730,International School Of Dhaka,90.4313595,23.8112865,Dhaka,Hauts-de-Seine,Île-de-France,Bangladesh,1229,7752.480467
731,Nanjing Foreign Language Schl,118.801451,32.056151,Nanjing Shi,Nanjing Shi,Jiangsu Sheng,China,92210,7177.63083
732,Maumee Valley Country Day Sch,-83.661901,41.6071662,Toledo,Lucas County,Ohio,United States,43614,397.8675422
733,Bishop Mcgann-Mercy High Schl,-72.6721446,40.935904,Riverhead,Suffolk County,New York,United States,11901,229.7843228
734,Hill School,-75.6305707,40.2472152,Pottstown,Montgomery County,Pennsylvania,United States,19464,194.333116
735,Zhengzhou Foreign Language Sch,113.619381,34.736726,Saint-Cloud,Saint-Cloud,Île-de-France,China,92210,7043.275972
736,Universal American School,55.3658152,25.2210543,Dubai,Hauts-de-Seine,Dubai,United Arab Emirates,92210,6816.47494
737,Hillel Academy,-79.924901,40.434918,Pittsburgh,Allegheny County,Pennsylvania,United States,15217,265.7806902
738,John F Kennedy High School,-118.4875824,34.2757507,Los Angeles,Los Angeles County,California,United States,91344,2342.452584
739,Millbrook School,-73.6209416,41.855375,Millbrook,Dutchess County,New York,United States,12545,152.1832709
740,Asociacion Escuelas Lincoln,-63.616672,-38.416097,,,,Argentina,,5659.965494
741,Nanjing Foreign Language Sch,118.801451,32.056151,Nanjing Shi,Nanjing Shi,Jiangsu Sheng,China,92210,7177.63083
742,Bishop Alemany High School,-118.4612937,34.2749238,Los Angeles,Los Angeles County,California,United States,91345,2341.148015
743,Leysin American School,7.0072443,46.3452631,Leysin,Aigle,Vaud,Switzerland,1854,3904.51506
744,Kiev Christian Academy,30.4289892,50.5091018,Kyiv,Kyiv City,Île-de-France,Ukraine,2000,4627.43319
745,Chengdu International School,104.066372,30.53848,Chengdu Shi,Chengdu Shi,Sichuan Sheng,China,610042,7367.718429
746,Peddie School,-74.5242289,40.2668445,Hightstown,Mercer County,New Jersey,United States,8520,208.5775377
747,Marianapolis Prep School,-71.8684512,41.9561365,Thompson,Windham County,Connecticut,United States,6277,230.2794333
748,Harbin Wanbang School,126.5475306,45.8731202,Haerbin Shi,Haerbin Shi,Heilongjiang Sheng,China,92210,6153.953589
749,Saint Rose High School,-74.0236956,40.1819103,Belmar,Monmouth County,New Jersey,United States,7719,225.3447161
750,Chippewa Hills High School,-85.151063,43.664197,Remus,Mecosta County,Michigan,United States,49340,456.0871839
751,Baulkham Hills HS,150.990791,-33.7512315,Baulkham Hills,The Hills Shire Council,New South Wales,Australia,2153,9839.994709
752,American Collegiate Institute,27.091212,38.395434,Saint-Cloud,Konak,Izmir,Turkey,35290,5054.482854
753,Hangzhou Foreign Languages Sch,120.034584,30.219582,Hangzhou Shi,Hangzhou Shi,Zhejiang Sheng,China,310023,7286.77409
754,Ningbo Foreign Langugage Schl,121.5376589,29.9009991,Ningbo Shi,Ningbo Shi,Zhejiang Sheng,China,315000,7288.349038
755,Miller School Of Albemarle,-78.7012489,38.0058913,Charlottesville,Albemarle County,Virginia,United States,22903,372.5286301
756,Saint John Baptist Diocesan Hs,-73.2919352,40.6949592,West Islip,Suffolk County,New York,United States,11795,218.2352017
757,Yokohama International School,139.65393,35.439275,Naka-ku,Hauts-de-Seine,Kanagawa,Japan,231-0862,6579.460012
758,Saint Johns High School,-71.7296505,42.291838,Shrewsbury,Worcester County,Massachusetts,United States,1545,230.1653359
759,Wyoming High School,-84.4701762,39.2333112,Cincinnati,Hamilton County,Ohio,United States,45215,507.6408291
760,Christopher Dock Mennonite Hs,-75.3336811,40.2548761,Lansdale,Montgomery County,Pennsylvania,United States,19446,196.4649221
761,International Sch Sacred Heart,139.7213444,35.6516879,Shibuya,Hauts-de-Seine,Tokyo,Japan,150-0012,6564.602398
762,Army And Navy Academy,-117.3547687,33.1628677,Carlsbad,San Diego County,California,United States,92008,2321.726498
763,Robert Louis Stevenson School,-73.976301,40.777931,New York,New York County,New York,United States,10023,191.5506928
764,Divine Child High School,-83.2830751,42.3186735,Dearborn,Wayne County,Michigan,United States,48128,367.359634
765,Tower Hill School,-75.5773939,39.7652168,Wilmington,New Castle County,Delaware,United States,19806,227.6764673
766,Auburn Adventist Academy,-122.1623791,47.281718,Auburn,King County,Washington,United States,98092,2234.739748
767,Saint Peter-Marian Jr-Sr Cath,-71.824195,42.306417,Worcester,Worcester County,Massachusetts,United States,1605,225.2229205
768,Linden Hall School For Girls,-76.3015884,40.1559204,Lititz,Lancaster County,Pennsylvania,United States,17543,199.0671849
769,Albuquerque Academy,-106.5519944,35.151977,Albuquerque,Bernalillo County,New Mexico,United States,87109,1712.199333
770,Yorktown High School,-77.1408765,38.9026941,Arlington,Arlington County,Virginia,United States,22207,290.1479398
771,Newsome High School,-82.2073858,27.8591631,Lithia,Hillsborough County,Florida,United States,33547,1100.286991
772,Masters School,-73.8704246,41.0109462,Dobbs Ferry,Westchester County,New York,United States,10522,182.0164321
773,Harley School,-77.549766,43.120189,Rochester,Monroe County,New York,United States,14618,71.86676731
774,Shibuya Senior High School,139.7029776,35.6637653,Shibuya,Hauts-de-Seine,Tokyo,Japan,150-0002,6564.293854
775,Woodberry Forest School,-78.1218027,38.2911875,Woodberry Forest,Madison County,Virginia,United States,22989,343.7367282
776,Western Academy Of Beijing,116.515871,40.023803,Saint-Cloud,Saint-Cloud,Beijing Shi,China,100102,6659.617234
777,International School Nido De A,-70.5013939,-33.3521744,Santiago,Santiago,Región Metropolitana,Chile,7690923,5268.089836
778,Saint Christophers School,-77.5218213,37.5793605,Richmond,Hauts-de-Seine,Virginia,United States,23226,383.6611857
779,Delhi Public School R K Puram,77.1761784,28.5718595,New Delhi,New Delhi,Delhi,India,110022,7220.840405
780,Munich International School,11.381544,48.002223,Starnberg,Oberbayern,Bayern,Germany,82319,4025.691767
781,Cairo American College,31.2744284,29.9586156,Saint-Cloud,Al Maadi,Cairo Governorate,Egypt,11431,5628.850066
782,Luanda International School,13.1902567,-8.9146616,Luanda,Luanda,Luanda Province,Angola,92210,6602.86374
783,Ukarumpa International School,145.8862328,-6.3362373,Saint-Cloud,Hauts-de-Seine,Île-de-France,Papua New Guinea,92210,8844.960964
784,Sandford International School,38.7724812,9.0364311,Addis Ababa,Hauts-de-Seine,Addis Ababa,Ethiopia,92210,7010.259301
785,Victory Christian Intrntl Schl,121.0683158,14.573864,Pasig,Hauts-de-Seine,Metro Manila,Philippines,92210,8319.823364
786,Xiamen Foreign Language School,118.0377734,24.4559079,Xiamen Shi,Xiamen Shi,Fujian Sheng,China,361026,7700.182447
787,Karachi Grammar School,67.0249936,24.823778,Karachi,Karachi City,Sindh,Pakistan,75600,7208.727787
788,Shorewood High School,-122.350506,47.755398,Shoreline,King County,Washington,United States,98133,2238.060786
789,American Intl School In Cyprus,33.3568559,35.1590695,Nicosia,Hauts-de-Seine,Nicosia,Cyprus,92210,5459.81517
790,El Alsson School,31.0503013,30.0004787,Saint-Cloud,Hauts-de-Seine,Giza Governorate,Egypt,92210,5617.317125
791,Jinan Foreign Language School,117.207353,36.796106,Jinan Shi,Jinan Shi,Shandong Sheng,China,92210,6872.951008
792,Immaculate High School,-73.4533412,41.3824025,Danbury,Fairfield County,Connecticut,United States,6810,178.7895079
793,Raffles Girls School-Secondary,103.8287358,1.311665,Singapore,Hauts-de-Seine,Île-de-France,Singapore,259978,9377.726969
794,Saint Josephs Preparatory Sch,-75.1645705,39.9730285,Philadelphia,Philadelphia County,Pennsylvania,United States,19130,217.3888464
795,American Sch Fndtn Monterrey,-100.4461205,25.6593801,Santa Catarina,Hauts-de-Seine,Nuevo León,Mexico,66190,1822.534127
796,Fox Chapel Area High School,-79.868921,40.517885,Pittsburgh,Allegheny County,Pennsylvania,United States,15238,259.7000814
797,Gimnasio Campestre,-74.0259553,4.7417916,Bogotá,Hauts-de-Seine,Bogotá,Colombia,110131,2639.382206
798,King's Christian Collegiate,-79.761573,43.478836,Oakville,Halton Regional Municipality,Ontario,Canada,L6M 4K6,185.5285475
799,Sunrise International School,77.1369085,28.9063313,Sonipat,Sonipat,Haryana,India,131023,7198.358456
800,International Schl Tegucigalpa,-87.1999057,14.044377,Tegucigalpa,Hauts-de-Seine,Île-de-France,Honduras,11101,2102.742686
801,Osaka International School,135.5086874,34.8294526,Minoh,Hauts-de-Seine,Osaka Prefecture,Japan,562-0032,6713.497424
802,Hisar School,75.735012,29.1772406,Hisar,Hisar,Haryana,India,125001,7151.492184
803,Chinese International School,114.1978933,22.2836,Saint-Cloud,Hauts-de-Seine,Hong Kong Island,Hong Kong,92210,7888.41846
804,Surabaya International School,112.649173,-7.290255,Saint-Cloud,Kota Surabaya,Jawa Timur,Indonesia,60225,9912.052702
805,Centro Escolar Solalto,-90.4577887,14.4961503,Saint-Cloud,Hauts-de-Seine,Île-de-France,Guatemala,92210,2142.156233
806,B D Somani International Sch,72.8195772,18.916146,Mumbai,Mumbai,Maharashtra,India,400005,7735.283842
807,Aloha High School,-122.8690143,45.4847243,Aloha,Washington County,Oregon,United States,97078,2292.205517
808,Hayah International Academy,-83.6786164,42.9964149,Flint,Genesee County,Michigan,United States,48503,382.041468
809,School Year Abroad Italy,12.1060882,42.4159003,Viterbo,Provincia di Viterbo,Lazio,Italy,1100,4261.601496
810,Kais International School,139.7185196,35.6328378,Shinagawa,Hauts-de-Seine,Tokyo,Japan,141-0021,6565.844388
811,Cheongna Dalton School,126.6230325,37.5468365,Saint-Cloud,Hauts-de-Seine,Incheon,South Korea,404-170,6704.065496
812,Seoul Scholars International,127.065191,37.502344,Saint-Cloud,Hauts-de-Seine,Seoul,South Korea,135-280,6700.033904
813,Seoul American High School Dod,127.000578,37.540559,Saint-Cloud,Hauts-de-Seine,Seoul,South Korea,92210,6698.537606
814,St Andrews College,-79.4764248,44.011386,Aurora,York Regional Municipality,Ontario,Canada,L4G 3H7,180.8431571
815,Anderson Junior College,103.8455069,1.3788363,Singapore,Hauts-de-Seine,Île-de-France,Singapore,569843,9373.112369
816,Global Vision Christian School,127.6100013,36.8760244,Eumseong,Hauts-de-Seine,Chungcheongbuk-do,South Korea,369-860,6732.523437
817,Auckland International College,174.6976369,-36.9223537,Auckland,Hauts-de-Seine,Auckland,New Zealand,600,8769.138931
818,American Intl Schl Egypt-West,31.4209751,30.0361148,Saint-Cloud,Hauts-de-Seine,Cairo Governorate,Egypt,11371,5631.262633
819,American College Of Sofia,23.3666301,42.6318201,Sofia,Hauts-de-Seine,Île-de-France,Bulgaria,1799,4715.585649
820,Ekamai International School,100.5923247,13.730953,Saint-Cloud,Hauts-de-Seine,Krung Thep Maha Nakhon,Thailand,10110,8518.776224
821,Quisqueya Christian School,-72.2912913,18.5342771,Port-au-Prince,Hauts-de-Seine,Ouest Department,Haiti,92210,1703.045171
822,Xavier School,-96.8306291,39.0249772,Junction City,Geary County,Kansas,United States,66441,1113.201659
823,Yew Chung International School,-122.0677061,37.39988,Mountain View,Santa Clara County,California,United States,94043,2429.642025
824,Lambert High School,-84.1389311,34.1062076,Suwanee,Forsyth County,Georgia,United States,30024,752.4646301
825,Kang Chiao Bilingual School,121.4967131,24.9113933,Saint-Cloud,Hauts-de-Seine,New Taipei City,Taiwan,231,7623.084303
826,Breck School,-93.3418426,44.9807698,Golden Valley,Hennepin County,Minnesota,United States,55422,866.2022685
827,English School Attached to Guangdong Univ Foreign Studies,113.256575,23.243216,Guangzhou Shi,Guangzhou Shi,Guangdong Sheng,China,92210,7831.191838
828,Anglo-Chinese Sch Independent,103.7809653,1.3023151,Singapore,Hauts-de-Seine,Île-de-France,Singapore,139650,9378.365713
829,Harrow International School,100.5851381,13.9045043,Bangkok,Hauts-de-Seine,Île-de-France,Thailand,10210,8506.835836
830,Whittier Christian High School,-117.9697,33.9349642,La Habra,Orange County,California,United States,90631,2327.255034
831,Changjun High School-Changsha,112.876667,28.190556,Changsha,Changsha,Île-de-France,China,92210,7496.245976
832,Norwich Free Academy,-72.082522,41.536985,Norwich,New London County,Connecticut,United States,6360,231.9986351
833,Shanghai World Foreign Lang Ms,121.415536,31.150162,Saint-Cloud,Saint-Cloud,Shanghai,China,200233,7206.233942
834,Shanghai Weiyu HS,121.443784,31.121079,Saint-Cloud,Saint-Cloud,Shanghai Shi,China,92210,7207.805034
835,Hillview College,-61.3809963,10.6541897,Saint-Cloud,Hauts-de-Seine,Île-de-France,Trinidad and Tobago,92210,2400.414271
836,Colegio Brader,-79.4733817,9.0239642,Panama City,Panama,Panama,Panama,92210,2350.671853
837,YK Pao School,104.195397,35.86166,,,,China,,7000.8465
838,Northfield Mount Hermon School,-72.4851107,42.666997,Gill,Franklin County,Massachusetts,United States,1354,187.0631598
839,Randolph Macon Academy,-78.199278,38.922376,Front Royal,Warren County,Virginia,United States,22630,303.7950383
840,Saint Marys Preparatory,-83.3568298,42.5931715,Orchard Lake Village,Oakland County,Michigan,United States,48324,368.219583
841,Cardinal O'Hara High School,-75.3481908,39.9476556,Springfield,Delaware County,Pennsylvania,United States,19064,217.1068675
842,High Sch Afltd Nanjing Normal,118.756392,32.077692,Nanjing Shi,Nanjing Shi,Jiangsu Sheng,China,210003,7176.685651
843,Bishop Fenwick High School,-84.2944764,39.4919824,Franklin,Warren County,Ohio,United States,45005,489.9959764
844,Beijing No 12 High School,116.3082461,39.8616866,Saint-Cloud,Saint-Cloud,Beijing Shi,China,100070,6672.417885
845,Affiliated Middle Sch Jilin U,125.31325,43.878493,Changchun Shi,Changchun Shi,Jilin Sheng,China,130021,6303.023285
846,Ashton School,-71.4278955,41.9478034,Cumberland,Providence County,Rhode Island,United States,2864,251.8505081
847,Jiaxing FLS Attached No 7 MS,120.758543,30.753924,Jiaxing,Jiaxing,Zhejiang,China,92210,7241.543576
